SALE TYPE,SOLD DATE,PROPERTY TYPE,ADDRESS,CITY,STATE,ZIP,PRICE,BEDS,BATHS,LOCATION,SQUARE FEET,LOT SIZE,YEAR BUILT,DAYS ON MARKET,$/SQUARE FEET,HOA/MONTH,STATUS,NEXT OPEN HOUSE START TIME,NEXT OPEN HOUSE END TIME,URL (SEE http://www.redfin.com/buy-a-home/comparative-market-analysis FOR INFO ON PRICING),SOURCE,MLS#,FAVORITE,INTERESTED,LATITUDE,LONGITUDE
PAST SALE,January-22-2015,Single Family Residential,97 Sunset Rd,Arlington,MA,02474,520000,3,2.0,Arlington,1519,4008,1933,1079,342,,Sold,,,http://www.redfin.com/MA/Arlington/97-Sunset-Rd-02474/home/8428760,MLS PIN,71757770,N,Y,42.4287643,-71.1762648
PAST SALE,November-3-2015,Single Family Residential,135 Woodside Ln,Arlington,MA,02474,781000,4,2.0,Arlington,2352,10500,1965,794,332,,Sold,,,http://www.redfin.com/MA/Arlington/135-Woodside-Ln-02474/home/8432755,MLS PIN,71902134,N,Y,42.4264654,-71.1618398
PAST SALE,January-8-2016,Single Family Residential,48 Eliot Rd,Arlington,MA,02474,700000,2,1.5,Kelwyn Manor,2116,6650,1939,728,331,,Sold,,,http://www.redfin.com/MA/Arlington/48-Eliot-Rd-02474/home/8405519,MLS PIN,71922598,N,Y,42.4043867,-71.151854
PAST SALE,June-22-2017,Single Family Residential,55 Bay State Rd,Arlington,MA,02474,1080000,4,3.0,Kelwyn Manor,2553,6114,1941,197,423,6,Sold,,,http://www.redfin.com/MA/Arlington/55-Bay-State-Rd-02474/home/11535988,MLS PIN,72147420,N,Y,42.4051253,-71.1548816
PAST SALE,October-2-2017,Townhouse,18 Mott St #18,Arlington,MA,02474,975000,3,2.5,Arlington,2846,6030,2014,95,343,150,Sold,,,http://www.redfin.com/MA/Arlington/18-Mott-St-02474/unit-18/home/58859136,MLS PIN,72211926,N,Y,42.4023266,-71.149819
PAST SALE,May-10-2017,Condo/Co-op,142 Lake St #2,Arlington,MA,02474,720000,3,2.0,Arlington,1843,5450,1939,240,391,180,Sold,,,http://www.redfin.com/MA/Arlington/142-Lake-St-02474/unit-2/home/21618046,MLS PIN,72134038,N,Y,42.4032835,-71.151372
PAST SALE,July-11-2016,Single Family Residential,1 Roanoke Rd,Arlington,MA,02474,855000,4,2.5,Kelwyn Manor,2481,5854,1939,543,345,,Sold,,,http://www.redfin.com/MA/Arlington/1-Roanoke-Rd-02474/home/8405798,MLS PIN,71994874,N,Y,42.4042286,-71.1550807
PAST SALE,November-15-2017,Condo/Co-op,72 Marathon St #72,Arlington,MA,02474,620000,2,2.0,Arlington,1044,,1915,51,594,150,Sold,,,http://www.redfin.com/MA/Arlington/72-Marathon-St-02474/unit-72/home/77510440,MLS PIN,72234863,N,Y,42.4075915,-71.1378829
PAST SALE,April-22-2016,Single Family Residential,19 Lansdowne Rd,Arlington,MA,02474,491000,2,1.5,Arlington,1435,5382,1945,623,342,,Sold,,,http://www.redfin.com/MA/Arlington/19-Lansdowne-Rd-02474/home/8431572,MLS PIN,71948405,N,Y,42.4251253,-71.164123
PAST SALE,October-30-2017,Single Family Residential,61 Henderson St,Arlington,MA,02474,780000,3,1.5,East Arlington,1200,4349,1900,67,650,,Sold,,,http://www.redfin.com/MA/Arlington/61-Henderson-St-02474/home/8407731,MLS PIN,72223648,N,Y,42.4037672,-71.1355058
PAST SALE,,Condo/Co-op,47 Magnolia St,Arlington,MA,02474,500000,2,1.0,,1376,,1914,,363,,,,,http://www.redfin.com/MA/Arlington/47-Magnolia-St-02474/home/8468958,,,N,Y,42.4019572,-71.1413478
PAST SALE,December-31-2015,Condo/Co-op,21 Dartmouth St #21,Arlington,MA,02474,429900,3,1.0,Arlington,1141,,1923,736,377,150,Sold,,,http://www.redfin.com/MA/Arlington/21-Dartmouth-St-02474/unit-21/home/77497533,MLS PIN,71927789,N,Y,42.4139544,-71.1410374
PAST SALE,May-9-2017,Multi-Family (2-4 Unit),23-23A Pine St,Arlington,MA,02474,856500,5,3.0,Arlington,2544,6365,1926,241,337,,Sold,,,http://www.redfin.com/MA/Arlington/23-Pine-St-02474/unit-A/home/23459334,MLS PIN,72128475,N,Y,42.4242125,-71.165386
PAST SALE,January-7-2016,Condo/Co-op,90 Everett St #1,Arlington,MA,02474,441000,2,1.0,East Arlington,1025,,1915,729,430,176,Sold,,,http://www.redfin.com/MA/Arlington/90-Everett-St-02474/unit-1/home/8467987,MLS PIN,71930390,N,Y,42.4098732,-71.1416936
PAST SALE,August-5-2016,Condo/Co-op,45 Magnolia St #45,Arlington,MA,02474,685500,3,2.0,Arlington,1651,,1914,518,415,192,Sold,,,http://www.redfin.com/MA/Arlington/45-Magnolia-St-02474/unit-45/home/77508637,MLS PIN,72016311,N,Y,42.4020026,-71.1412678
PAST SALE,September-22-2016,Townhouse,15 Walnut Ct #15,Arlington,MA,02476,540000,2,2.5,Arlington,1417,,1987,470,381,65,Sold,,,http://www.redfin.com/MA/Arlington/15-Walnut-Ct-02476/unit-15/home/77522061,MLS PIN,72044236,N,Y,42.418385,-71.1691666
PAST SALE,November-17-2017,Condo/Co-op,45 Fairmont St #45,Arlington,MA,02474,614900,3,2.0,East Arlington,1383,,1923,49,445,135,Sold,,,http://www.redfin.com/MA/Arlington/45-Fairmont-St-02474/unit-45/home/77512365,MLS PIN,72237890,N,Y,42.4010146,-71.1400764
PAST SALE,August-5-2016,Condo/Co-op,47 Magnolia St #47,Arlington,MA,02474,500000,2,1.0,Arlington,943,,1914,518,530,128,Sold,,,http://www.redfin.com/MA/Arlington/47-Magnolia-St-02474/unit-47/home/106083365,MLS PIN,72016315,N,Y,42.4019572,-71.1413478
PAST SALE,July-31-2015,Single Family Residential,39 Sunnyside Ave,Arlington,MA,02474,440000,2,1.0,Arlington,932,2427,1947,889,472,,Sold,,,http://www.redfin.com/MA/Arlington/39-Sunnyside-Ave-02474/home/8410904,MLS PIN,71845285,N,Y,42.4087688,-71.1332532
PAST SALE,January-15-2015,Single Family Residential,251 Forest St,Arlington,MA,02474,550000,3,1.5,Arlington,1593,7165,1955,1086,345,,Sold,,,http://www.redfin.com/MA/Arlington/251-Forest-St-02474/home/8440202,MLS PIN,71768507,N,Y,42.4326916,-71.1755837
PAST SALE,July-6-2017,Townhouse,70 EGERTON Rd #70,Arlington,MA,02474,940000,3,2.5,East Arlington,2527,5486,2014,183,372,175,Sold,,,http://www.redfin.com/MA/Arlington/70-Egerton-Rd-02474/unit-70/home/56957872,MLS PIN,72173960,N,Y,42.4032537,-71.1438337
PAST SALE,September-2-2016,Townhouse,40 Brattle St #1,Arlington,MA,02476,679000,3,2.5,Arlington,1945,,2007,490,349,375,Sold,,,http://www.redfin.com/MA/Arlington/40-Brattle-St-02476/unit-1/home/21618089,MLS PIN,72041586,N,Y,42.421961,-71.169112
PAST SALE,June-9-2017,Condo/Co-op,142 Lake St #1,Arlington,MA,02474,469000,2,1.0,Arlington,962,5450,1939,210,488,120,Sold,,,http://www.redfin.com/MA/Arlington/142-Lake-St-02474/unit-1/home/77509707,MLS PIN,72137347,N,Y,42.4032835,-71.151372
PAST SALE,June-7-2016,Single Family Residential,5 Roanoke Rd,Arlington,MA,02474,771000,2,1.5,Kelwyn Manor,1738,6214,1940,577,444,,Sold,,,http://www.redfin.com/MA/Arlington/5-Roanoke-Rd-02474/home/8405718,MLS PIN,71983810,N,Y,42.4042653,-71.1553858
PAST SALE,September-23-2015,Multi-Family (2-4 Unit),40 Henderson St,Arlington,MA,02474,632500,3,2.0,Arlington,1728,4469,1880,835,366,,Sold,,,http://www.redfin.com/MA/Arlington/40-Henderson-St-02474/home/8407292,MLS PIN,71868685,N,Y,42.4033947,-71.1364624
PAST SALE,December-12-2016,Single Family Residential,32 Chatham St,Arlington,MA,02474,635000,3,2.0,Arlington,1344,5040,1950,389,472,,Sold,,,http://www.redfin.com/MA/Arlington/32-Chatham-St-02474/home/8433789,MLS PIN,72086260,N,Y,42.4283618,-71.1686038
PAST SALE,April-29-2015,Townhouse,121A Madison Ave #1,Arlington,MA,02474,380000,2,2.0,Arlington,1298,,1965,982,293,,Sold,,,http://www.redfin.com/MA/Arlington/121-Madison-Ave-02474/unit-1/home/8438123,MLS PIN,71810190,N,Y,42.431502,-71.1840851
PAST SALE,November-18-2016,Single Family Residential,39 Avola St,Arlington,MA,02476,855000,3,2.5,Arlington,2276,8000,1961,413,376,,Sold,,,http://www.redfin.com/MA/Arlington/39-Avola-St-02476/home/8463839,MLS PIN,72063932,N,Y,42.4203511,-71.1949543
PAST SALE,June-30-2015,Single Family Residential,14 Virginia Rd,Arlington,MA,02476,1125000,4,3.5,Arlington Heights,2806,6465,2005,920,401,,Sold,,,http://www.redfin.com/MA/Arlington/14-Virginia-Rd-02476/home/11774826,MLS PIN,71836453,N,Y,42.4180094,-71.1916094
PAST SALE,November-1-2016,Single Family Residential,355 Appleton St,Arlington,MA,02476,570000,3,1.5,Arlington Heights,1444,6407,1939,430,395,,Sold,,,http://www.redfin.com/MA/Arlington/355-Appleton-St-02476/home/8462429,MLS PIN,72068185,N,Y,42.4192858,-71.1924648
PAST SALE,May-26-2016,Single Family Residential,195 Overlook Rd,Arlington,MA,02474,549000,3,2.0,Arlington,1496,6974,1953,589,367,,Sold,,,http://www.redfin.com/MA/Arlington/195-Overlook-Rd-02474/home/8436905,MLS PIN,71984753,N,Y,42.4315158,-71.1669669
PAST SALE,September-21-2015,Single Family Residential,741 Summer St,Arlington,MA,02474,550000,4,1.0,Arlington,1314,4859,1949,837,419,,Sold,,,http://www.redfin.com/MA/Arlington/741-Summer-St-02474/home/8438039,MLS PIN,71881525,N,Y,42.43322,-71.184302
PAST SALE,November-16-2015,Single Family Residential,71 Park Avenue Ext,Arlington,MA,02474,499000,3,2.0,Arlington Heights,1452,4281,1928,781,344,,Sold,,,http://www.redfin.com/MA/Arlington/71-Park-Avenue-Ext-02474/home/8429531,MLS PIN,71908726,N,Y,42.4282492,-71.1791733
PAST SALE,August-19-2016,Single Family Residential,43 Foxmeadow Ln,Arlington,MA,02474,707500,4,2.0,Arlington,1572,9040,1954,504,450,,Sold,,,http://www.redfin.com/MA/Arlington/43-Foxmeadow-Ln-02474/home/8435766,MLS PIN,72024260,N,Y,42.4326149,-71.1677007
PAST SALE,November-30-2015,Condo/Co-op,11 Howard St #2,Arlington,MA,02476,492500,3,1.5,Arlington,1281,,1923,767,384,225,Sold,,,http://www.redfin.com/MA/Arlington/11-Howard-St-02476/unit-2/home/14370668,MLS PIN,71909701,N,Y,42.4205845,-71.1731267
PAST SALE,December-15-2016,Single Family Residential,28 Draper Ave,Arlington,MA,02474,875000,4,2.5,Arlington,3070,5280,1890,386,285,,Sold,,,http://www.redfin.com/MA/Arlington/28-Draper-Ave-02474/home/8425246,MLS PIN,72080380,N,Y,42.4239251,-71.1509349
PAST SALE,January-3-2017,Condo/Co-op,19 Howard St #1,Arlington,MA,02476,500000,3,1.0,Arlington,1313,,1926,367,381,85,Sold,,,http://www.redfin.com/MA/Arlington/19-Howard-St-02476/unit-1/home/21618070,MLS PIN,72091997,N,Y,42.4207966,-71.1733751
PAST SALE,January-24-2017,Single Family Residential,108 Irving St,Arlington,MA,02476,821000,3,2.5,Arlington,1956,7062,1955,346,420,,Sold,,,http://www.redfin.com/MA/Arlington/108-Irving-St-02476/home/8446050,MLS PIN,72100220,N,Y,42.4133639,-71.1628355
PAST SALE,June-24-2016,Single Family Residential,22 Sutherland Rd,Arlington,MA,02476,889000,5,3.5,Little Scotland (Scotch Village),2502,4050,1925,560,355,,Sold,,,http://www.redfin.com/MA/Arlington/22-Sutherland-Rd-02476/home/8461422,MLS PIN,71966340,N,Y,42.4240328,-71.1878876
PAST SALE,September-16-2015,Single Family Residential,36 Tanager St,Arlington,MA,02476,842500,5,2.5,Arlington,2496,6500,1890,842,338,,Sold,,,http://www.redfin.com/MA/Arlington/36-Tanager-St-02476/home/8461711,MLS PIN,71864292,N,Y,42.4228831,-71.1869887
PAST SALE,September-11-2015,Condo/Co-op,2 Colonial Village Dr #10,Arlington,MA,02474,220000,2,1.0,Arlington Heights,665,,1962,847,331,512,Sold,,,http://www.redfin.com/MA/Arlington/2-Colonial-Village-Dr-02474/unit-10/home/8422456,MLS PIN,71885730,N,Y,42.4267448,-71.1863053
PAST SALE,December-20-2016,Condo/Co-op,1 Colonial Village Dr #12,Arlington,MA,02474,252000,2,1.0,Arlington,665,,1962,381,379,512,Sold,,,http://www.redfin.com/MA/Arlington/1-Colonial-Village-Dr-02474/unit-12/home/8422401,MLS PIN,72091949,N,Y,42.4271155,-71.1865589
PAST SALE,,Single Family Residential,78 Waverley St,Arlington,MA,02476,630000,2,2.0,,1432,4500,1939,,440,,,,,http://www.redfin.com/MA/Arlington/78-Waverley-St-02476/home/8456693,,,N,Y,42.4173329,-71.1857561
PAST SALE,August-28-2015,Single Family Residential,50 Beverly Rd,Arlington,MA,02474,875000,6,3.5,Arlington,2588,9126,2005,861,338,,Sold,,,http://www.redfin.com/MA/Arlington/50-Beverly-Rd-02474/home/8425832,MLS PIN,71850867,N,Y,42.4253023,-71.1498073
PAST SALE,October-19-2015,Single Family Residential,66 Sylvia,Arlington,MA,02476,641500,4,2.0,Arlington,1808,3572,1917,809,355,,Sold,,,http://www.redfin.com/MA/Arlington/66-Sylvia-St-02476/home/8463086,MLS PIN,71895464,N,Y,42.4236203,-71.1938679
PAST SALE,April-21-2015,Single Family Residential,54 Crosby St,Arlington,MA,02474,870000,4,2.5,Bishop School,2228,8660,1953,990,390,,Sold,,,http://www.redfin.com/MA/Arlington/54-Crosby-St-02474/home/8427409,MLS PIN,71800544,N,Y,42.425905,-71.1555016
PAST SALE,December-23-2016,Single Family Residential,22 Williams St,Arlington,MA,02476,736000,3,1.5,Arlington Heights,1894,4620,1911,378,389,,Sold,,,http://www.redfin.com/MA/Arlington/22-Williams-St-02476/home/8462208,MLS PIN,72086434,N,Y,42.4234171,-71.1911027
PAST SALE,July-21-2016,Single Family Residential,66 Richfield Rd,Arlington,MA,02474,1290000,6,3.5,Arlington,3920,9362,1933,533,329,,Sold,,,http://www.redfin.com/MA/Arlington/66-Richfield-Rd-02474/home/8424294,MLS PIN,72018198,N,Y,42.4215793,-71.1577934
PAST SALE,December-7-2015,Single Family Residential,2 Virginia Rd,Arlington,MA,02476,600000,3,2.0,Arlington Heights,1428,7540,1949,760,420,,Sold,,,http://www.redfin.com/MA/Arlington/2-Virginia-Rd-02476/home/8464145,MLS PIN,71886926,N,Y,42.4186598,-71.1916498
PAST SALE,October-30-2015,Condo/Co-op,176 Park Ave #1,Arlington,MA,02476,469000,2,1.0,Arlington,1179,5269,1922,798,398,120,Sold,,,http://www.redfin.com/MA/Arlington/176-Park-Ave-02476/unit-1/home/8459006,MLS PIN,71904496,N,Y,42.4198405,-71.1820195
PAST SALE,June-15-2016,Single Family Residential,96 Oakland Ave,Arlington,MA,02476,540000,3,1.5,Arlington,1829,10139,1955,569,295,,Sold,,,http://www.redfin.com/MA/Arlington/96-Oakland-Ave-02476/home/8453778,MLS PIN,71991444,N,Y,42.4187316,-71.1785585
PAST SALE,February-25-2016,Condo/Co-op,78 Marathon St #2,Arlington,MA,02474,523500,2,1.0,East Arlington,1212,5000,1915,680,432,155,Sold,,,http://www.redfin.com/MA/Arlington/78-Marathon-St-02474/unit-2/home/11927130,MLS PIN,71948619,N,Y,42.4076392,-71.1375789
PAST SALE,May-12-2015,Multi-Family (2-4 Unit),43-45 Beacon St,Arlington,MA,02474,766000,5,3.5,Arlington,2277,8125,1920,969,336,,Sold,,,http://www.redfin.com/MA/Arlington/45-Beacon-St-02474/home/8415583,MLS PIN,71803563,N,Y,42.4151848,-71.1434015
PAST SALE,September-24-2015,Condo/Co-op,22 Grafton St #22,Arlington,MA,02474,580100,3,1.5,East Arlington,1834,,1913,834,316,,Sold,,,http://www.redfin.com/MA/Arlington/22-Grafton-St-02474/unit-22/home/77504013,MLS PIN,71887938,N,Y,42.4077172,-71.143335
PAST SALE,,Single Family Residential,8 Berkeley St,Arlington,MA,02474,427000,3,1.0,,1626,4523,1930,,263,,,,,http://www.redfin.com/MA/Arlington/8-Berkeley-St-02474/home/8438488,,,N,Y,42.4310494,-71.1793162
PAST SALE,January-9-2015,Single Family Residential,25 Dickson Ave,Arlington,MA,02474,681000,3,1.5,Arlington,1620,6400,1951,1092,420,,Sold,,,http://www.redfin.com/MA/Arlington/25-Dickson-Ave-02474/home/8436107,MLS PIN,71765811,N,Y,42.4300176,-71.1672383
PAST SALE,,Single Family Residential,15 Elmore St,Arlington,MA,02476,757000,3,2.5,,1696,4855,1931,,446,,,,,http://www.redfin.com/MA/Arlington/15-Elmore-St-02476/home/8458763,,,N,Y,42.421472,-71.1792453
PAST SALE,June-30-2015,Single Family Residential,46 Greeley Cir,Arlington,MA,02474,640000,3,2.0,Arlington,1690,6800,1959,920,379,,Sold,,,http://www.redfin.com/MA/Arlington/46-Greeley-Cir-02474/home/8435972,MLS PIN,71822679,N,Y,42.4320691,-71.1693211
PAST SALE,March-31-2016,Condo/Co-op,108 Orient Ave Unit B,Arlington,MA,02474,370000,2,1.0,Arlington,1250,,1967,645,296,,Sold,,,http://www.redfin.com/MA/Arlington/108-Orient-Ave-02474/unit-B/home/8467268,MLS PIN,71952929,N,Y,42.4317342,-71.1830775
PAST SALE,June-25-2015,Single Family Residential,11 Mead Rd,Arlington,MA,02474,539900,2,1.5,Arlington,1200,6400,1957,925,450,,Sold,,,http://www.redfin.com/MA/Arlington/11-Mead-Rd-02474/home/8431834,MLS PIN,71838547,N,Y,42.4242538,-71.1665053
PAST SALE,October-5-2015,Single Family Residential,175 Park Ave,Arlington,MA,02476,629000,3,1.0,Arlington Heights,1608,5300,1931,823,391,,Sold,,,http://www.redfin.com/MA/Arlington/175-Park-Ave-02476/home/8459160,MLS PIN,71881358,N,Y,42.4197301,-71.1826478
PAST SALE,April-27-2016,Condo/Co-op,21-23 Laurel St #2,Arlington,MA,02476,465000,2,1.0,Arlington,1117,,1926,618,416,150,Sold,,,http://www.redfin.com/MA/Arlington/21-23-Laurel-St-02476/unit-2/home/39603009,MLS PIN,71966505,N,Y,42.421585,-71.170198
PAST SALE,,Townhouse,28-30 Appleton Pl,Arlington,MA,02476,646900,6,3.0,,4365,6706,1970,,148,,,,,http://www.redfin.com/MA/Arlington/28-30-Appleton-Pl-02476/home/23457727,,,N,Y,42.422088,-71.175011
PAST SALE,September-15-2015,Single Family Residential,50 Park Avenue Ext,Arlington,MA,02474,585000,3,1.0,Arlington Heights,1531,4874,1921,843,382,,Sold,,,http://www.redfin.com/MA/Arlington/50-Park-Avenue-Ext-02474/home/8429228,MLS PIN,71874280,N,Y,42.427853,-71.1803335
PAST SALE,December-1-2016,Single Family Residential,607 Summer St,Arlington,MA,02474,675000,3,2.0,Arlington,1733,4294,1928,400,389,,Sold,,,http://www.redfin.com/MA/Arlington/607-Summer-St-02474/home/11536230,MLS PIN,72071671,N,Y,42.4304956,-71.1792871
PAST SALE,August-5-2016,Single Family Residential,100 Brantwood Rd,Arlington,MA,02476,900000,4,1.5,Jason Heights,2263,5967,1923,518,398,,Sold,,,http://www.redfin.com/MA/Arlington/100-Brantwood-Rd-02476/home/8447360,MLS PIN,72014654,N,Y,42.4098501,-71.1633796
PAST SALE,October-21-2016,Single Family Residential,3 Bellevue Rd,Arlington,MA,02476,742000,4,2.5,Arlington Heights,2518,10326,1941,441,295,,Sold,,,http://www.redfin.com/MA/Arlington/3-Bellevue-Rd-02476/home/8447215,MLS PIN,72067314,N,Y,42.409343,-71.1705361
PAST SALE,July-20-2016,Single Family Residential,71 Quincy St,Arlington,MA,02476,669000,3,1.5,Arlington Heights,1703,5395,1927,534,393,,Sold,,,http://www.redfin.com/MA/Arlington/71-Quincy-St-02476/home/8452561,MLS PIN,72016180,N,Y,42.4201949,-71.1749208
PAST SALE,October-26-2015,Single Family Residential,79 WALNUT St,Arlington,MA,02476,755000,4,2.0,Arlington Heights,1800,7371,1940,802,419,,Sold,,,http://www.redfin.com/MA/Arlington/79-Walnut-St-02476/home/8449250,MLS PIN,71901566,N,Y,42.4172459,-71.1720158
PAST SALE,August-24-2015,Single Family Residential,186 Waverley St,Arlington,MA,02476,895000,4,3.5,Arlington,2050,4680,1941,865,437,,Sold,,,http://www.redfin.com/MA/Arlington/186-Waverley-St-02476/home/8456443,MLS PIN,71864831,N,Y,42.4143119,-71.1833499
PAST SALE,August-15-2016,Condo/Co-op,993 Massachusetts Ave #121,Arlington,MA,02476,265000,1,1.5,Arlington,589,,1971,508,450,390,Sold,,,http://www.redfin.com/MA/Arlington/993-Massachusetts-Ave-02476/unit-121/home/8418532,MLS PIN,72007724,N,Y,42.4199377,-71.1676246
PAST SALE,November-16-2015,Single Family Residential,45 Hemlock St,Arlington,MA,02474,500000,4,1.5,Arlington,1632,9185,1965,781,306,,Sold,,,http://www.redfin.com/MA/Arlington/45-Hemlock-St-02474/home/8431598,MLS PIN,71874720,N,Y,42.4245122,-71.1644184
PAST SALE,April-2-2015,Condo/Co-op,124 Park Ave #124,Arlington,MA,02476,465000,2,1.5,Arlington Heights,1091,,1949,1009,426,117,Sold,,,http://www.redfin.com/MA/Arlington/124-Park-Ave-02476/unit-124/home/77525868,MLS PIN,71791647,N,Y,42.4220989,-71.1832376
PAST SALE,June-29-2016,Multi-Family (2-4 Unit),22-26 Brattle,Arlington,MA,02474,797000,4,4.0,Brattle Station,2372,5521,1880,555,336,,Sold,,,http://www.redfin.com/MA/Arlington/26-Brattle-St-02476/home/23456449,MLS PIN,71999549,N,Y,42.4215907,-71.1692272
PAST SALE,,Condo/Co-op,156 Medford St,Arlington,MA,02474,450000,2,1.0,,988,,1924,,455,,,,,http://www.redfin.com/MA/Arlington/156-Medford-St-02474/home/8466154,,,N,Y,42.419648,-71.145383
PAST SALE,May-15-2015,Multi-Family (2-4 Unit),48 Maynard St,Arlington,MA,02474,630000,4,2.0,Arlington,2080,4691,1924,966,303,,Sold,,,http://www.redfin.com/MA/Arlington/48-Maynard-St-02474/home/8417410,MLS PIN,71803550,N,Y,42.4205213,-71.1452994
PAST SALE,May-14-2015,Single Family Residential,55 Eustis St,Arlington,MA,02476,685000,2,1.5,Arlington,1640,7724,1939,967,418,,Sold,,,http://www.redfin.com/MA/Arlington/55-Eustis-St-02476/home/8454489,MLS PIN,71800312,N,Y,42.4132761,-71.1786283
PAST SALE,,Townhouse,4A Bacon St Unit 4A,Arlington,MA,02476,715000,3,2.5,,2143,,2003,,334,,,,,http://www.redfin.com/MA/Arlington/4A-Bacon-St-02476/unit-4A/home/14370638,,,N,Y,42.4168927,-71.1572111
PAST SALE,,Multi-Family (2-4 Unit),13 Field Rd,Arlington,MA,02476,595000,4,2.0,,2846,6958,1925,,209,,,,,http://www.redfin.com/MA/Arlington/13-Field-Rd-02476/home/8443614,,,N,Y,42.416174,-71.164274
PAST SALE,July-18-2016,Townhouse,745-A Massachusetts Ave Unit 745A,Arlington,MA,02476,740000,3,2.5,Arlington,2221,,2005,536,333,419,Sold,,,http://www.redfin.com/MA/Arlington/745-Massachusetts-Ave-02476/unit-745A/home/12099036,MLS PIN,72004336,N,Y,42.4165658,-71.1578649
PAST SALE,November-15-2016,Single Family Residential,45-45A Lakehill Ave,Arlington,MA,02474,900000,6,3.0,Arlington,3602,10329,1910,416,250,,Sold,,,http://www.redfin.com/MA/Arlington/45-45A-Lakehill-Ave-02474/home/109163616,MLS PIN,72074934,N,Y,42.405962,-71.148022
PAST SALE,,Condo/Co-op,99 Egerton Rd,Arlington,MA,02474,480000,2,1.0,,1095,,1925,,438,,,,,http://www.redfin.com/MA/Arlington/99-Egerton-Rd-02474/home/21618057,,,N,Y,42.403097,-71.145358
PAST SALE,March-30-2015,Condo/Co-op,11 Marion Rd #1,Arlington,MA,02474,541000,2,2.0,East Arlington,1297,,1940,1012,417,150,Sold,,,http://www.redfin.com/MA/Arlington/11-Marion-Rd-02474/unit-1/home/12098933,MLS PIN,71788268,N,Y,42.4083656,-71.1465987
PAST SALE,,Multi-Family (2-4 Unit),54-56 Orvis Rd,Arlington,MA,02474,578000,5,2.0,,2839,5793,1917,,204,,,,,http://www.redfin.com/MA/Arlington/54-56-Orvis-Rd-02474/home/23457539,,,N,Y,42.405888,-71.145469
PAST SALE,July-2-2015,Single Family Residential,27 Tufts St,Arlington,MA,02474,655000,3,1.5,Arlington,1390,5000,1937,918,471,,Sold,,,http://www.redfin.com/MA/Arlington/27-Tufts-St-02474/home/8409717,MLS PIN,71839811,N,Y,42.409633,-71.1453193
PAST SALE,,Condo/Co-op,70 Lake St,Arlington,MA,02474,502000,3,1.0,,1274,,1924,,394,,,,,http://www.redfin.com/MA/Arlington/70-Lake-St-02474/home/14370648,,,N,Y,42.4042822,-71.1465261
PAST SALE,May-1-2015,Condo/Co-op,66 Freeman St #2,Arlington,MA,02474,575000,4,2.0,Arlington,1967,,1920,980,292,130,Sold,,,http://www.redfin.com/MA/Arlington/66-Freeman-St-02474/unit-2/home/8469196,MLS PIN,71800132,N,Y,42.406956,-71.145732
PAST SALE,May-22-2015,Condo/Co-op,70 Lake St #70,Arlington,MA,02474,502000,3,1.0,East Arlington,1274,4400,1924,959,394,125,Sold,,,http://www.redfin.com/MA/Arlington/70-Lake-St-02474/unit-70/home/77466990,MLS PIN,71806738,N,Y,42.4042822,-71.1465261
PAST SALE,,Multi-Family (2-4 Unit),100 Lake St,Arlington,MA,02474,339900,4,2.0,,2917,6289,1928,,117,,,,,http://www.redfin.com/MA/Arlington/100-Lake-St-02474/home/23457413,,,N,Y,42.4038716,-71.148683
PAST SALE,,Multi-Family (2-4 Unit),67 Lake St,Arlington,MA,02474,712500,4,2.0,,2686,5000,1921,,265,,,,,http://www.redfin.com/MA/Arlington/67-Lake-St-02474/home/8401899,,,N,Y,42.4045866,-71.146581
PAST SALE,,Condo/Co-op,65 Freeman St #2,Arlington,MA,02474,515000,2,1.0,,1480,,1916,,348,,,,,http://www.redfin.com/MA/Arlington/65-Freeman-St-02474/unit-2/home/12548345,,,N,Y,42.4071113,-71.1455672
PAST SALE,,Condo/Co-op,41 Margaret St,Arlington,MA,02474,455000,2,1.0,,1042,,1928,,437,,,,,http://www.redfin.com/MA/Arlington/41-Margaret-St-02474/home/40431413,,,N,Y,42.402659,-71.146856
PAST SALE,,Condo/Co-op,264 Massachusetts Ave Unit 103,Arlington,MA,02474,186000,2,2.0,,1118,,2004,,166,,,,,http://www.redfin.com/MA/Arlington/264-Massachusetts-Ave-02474/unit-103/home/23476325,,,N,Y,42.4077121,-71.1454249
PAST SALE,,Condo/Co-op,35-37 Orvis Rd #1,Arlington,MA,02474,492000,2,1.0,,1020,,1915,,482,,,,,http://www.redfin.com/MA/Arlington/35-37-Orvis-Rd-02474/unit-1/home/8468724,,,N,Y,42.4065171,-71.1455482
PAST SALE,August-4-2016,Multi-Family (2-4 Unit),286 Massachusetts Ave,Arlington,MA,02474,957500,7,3.5,Arlington,3040,5227,1930,519,315,,Sold,,,http://www.redfin.com/MA/Arlington/286-Massachusetts-Ave-02474/home/8402126,MLS PIN,71991008,N,Y,42.4088908,-71.1465023
PAST SALE,,Condo/Co-op,18 Hamilton Rd Apt 106,Arlington,MA,02474,216000,1,1.0,,357,,1985,,605,,,,,http://www.redfin.com/MA/Arlington/18-Hamilton-Rd-02474/unit-106/home/8406296,,,N,Y,42.4063119,-71.1483566
PAST SALE,,Condo/Co-op,18 Hamilton Rd Apt 207,Arlington,MA,02474,450000,2,1.0,,868,,1985,,518,,,,,http://www.redfin.com/MA/Arlington/18-Hamilton-Rd-02474/unit-207/home/8406350,,,N,Y,42.4063119,-71.1483566
PAST SALE,September-16-2016,Condo/Co-op,27 Linwood St #27,Arlington,MA,02474,560000,3,1.5,Arlington,1295,2000,1926,476,432,,Sold,,,http://www.redfin.com/MA/Arlington/27-Linwood-St-02474/unit-27/home/104521968,MLS PIN,71990164,N,Y,42.4095606,-71.1486568
PAST SALE,August-1-2016,Condo/Co-op,76 Brooks Ave #2,Arlington,MA,02474,799000,3,2.0,Arlington,2080,6779,1925,522,384,209,Sold,,,http://www.redfin.com/MA/Arlington/76-Brooks-Ave-02474/unit-2/home/106413953,MLS PIN,72020842,N,Y,42.403339,-71.145877
PAST SALE,May-29-2015,Single Family Residential,34 Gorham St,Arlington,MA,02474,485000,4,1.0,Stratton,1344,4800,1950,952,361,,Sold,,,http://www.redfin.com/MA/Arlington/34-Gorham-St-02474/home/8433690,MLS PIN,71814131,N,Y,42.4266826,-71.1702217
PAST SALE,October-28-2016,Single Family Residential,413 Summer St,Arlington,MA,02474,610000,3,2.0,Arlington,1664,6908,1930,434,367,,Sold,,,http://www.redfin.com/MA/Arlington/413-Summer-St-02474/home/8428396,MLS PIN,72063434,N,Y,42.4258194,-71.1718757
PAST SALE,May-4-2015,Single Family Residential,6 Knowles Farm Cir,Arlington,MA,02474,866750,4,2.5,Arlington,3100,6038,2005,977,280,,Sold,,,http://www.redfin.com/MA/Arlington/6-Knowles-Farm-Rd-02474/home/12099040,MLS PIN,71797902,N,Y,42.4262915,-71.1647292
PAST SALE,,Condo/Co-op,54 Hemlock St,Arlington,MA,02474,379000,2,1.0,,1175,,1927,,323,,,,,http://www.redfin.com/MA/Arlington/54-Hemlock-St-02474/home/12099011,,,N,Y,42.4247788,-71.1650515
PAST SALE,January-14-2016,Condo/Co-op,54 Hemlock St #54,Arlington,MA,02474,379000,2,1.0,Arlington,1175,,1927,722,323,,Sold,,,http://www.redfin.com/MA/Arlington/54-Hemlock-St-02474/unit-54/home/101644314,MLS PIN,71916359,N,Y,42.4247788,-71.1650515
PAST SALE,September-8-2016,Single Family Residential,115 Hemlock St,Arlington,MA,02474,645000,3,2.0,Arlington Heights,1488,6500,1958,484,433,,Sold,,,http://www.redfin.com/MA/Arlington/115-Hemlock-St-02474/home/8432850,MLS PIN,72015752,N,Y,42.4275242,-71.1670451
PAST SALE,,Single Family Residential,86 Dickson Ave,Arlington,MA,02474,834000,4,3.0,,2865,10273,1957,,291,,,,,http://www.redfin.com/MA/Arlington/86-Dickson-Ave-02474/home/8433187,,,N,Y,42.4273365,-71.1656288
PAST SALE,February-8-2016,Condo/Co-op,43 Pine St #43,Arlington,MA,02474,401000,2,1.0,Arlington,894,,1925,697,449,125,Sold,,,http://www.redfin.com/MA/Arlington/43-Pine-St-02474/unit-43/home/77525415,MLS PIN,71938142,N,Y,42.4247849,-71.1663617
PAST SALE,,Townhouse,12 Brattle Ln,Arlington,MA,02474,795000,3,3.5,,2156,,2008,,369,,,,,http://www.redfin.com/MA/Arlington/12-Brattle-Ln-02474/home/39603004,,,N,Y,42.4242557,-71.1681194
PAST SALE,August-17-2016,Townhouse,15 Rockaway Ln #15,Arlington,MA,02474,501000,2,1.0,Arlington,1255,,1963,506,399,359,Sold,,,http://www.redfin.com/MA/Arlington/15-Rockaway-Ln-02474/unit-15/home/108157209,MLS PIN,72028224,N,Y,42.4274691,-71.1753047
PAST SALE,,Townhouse,102 Forest St,Arlington,MA,02474,395000,2,1.0,,1335,,1953,,296,,,,,http://www.redfin.com/MA/Arlington/102-Forest-St-02474/home/12099037,,,N,Y,42.4268623,-71.1746013
PAST SALE,February-17-2015,Single Family Residential,58 Ronald Rd,Arlington,MA,02474,399000,2,1.0,Arlington,768,5400,1952,1053,520,,Sold,,,http://www.redfin.com/MA/Arlington/58-Ronald-Rd-02474/home/8433466,MLS PIN,71758369,N,Y,42.4276153,-71.1705028
PAST SALE,June-16-2016,Townhouse,19 Rockaway Ln #19,Arlington,MA,02474,501000,2,1.0,Arlington,1255,,1963,568,399,359,Sold,,,http://www.redfin.com/MA/Arlington/19-Rockaway-Ln-02474/unit-19/home/105460842,MLS PIN,71998322,N,Y,42.4273183,-71.1755531
PAST SALE,January-24-2017,Single Family Residential,34 Windmill Ln,Arlington,MA,02474,930000,3,3.5,Arlington,3271,13990,1952,346,284,,Sold,,,http://www.redfin.com/MA/Arlington/34-Windmill-Ln-02474/home/11774683,MLS PIN,72091587,N,Y,42.4338719,-71.1627355
PAST SALE,April-6-2016,Single Family Residential,128 Lowell St,Arlington,MA,02474,470000,3,2.5,Arlington,1772,4287,1880,639,265,,Sold,,,http://www.redfin.com/MA/Arlington/128-Lowell-St-02474/home/8422100,MLS PIN,71963201,N,Y,42.4260155,-71.1832678
PAST SALE,January-30-2015,Single Family Residential,298 Mystic St,Arlington,MA,02474,754000,4,2.5,Mystic Lakes/Morningside,2380,6146,1988,1071,317,,Sold,,,http://www.redfin.com/MA/Arlington/298-Mystic-St-02474/home/8426254,MLS PIN,71776125,N,Y,42.4260868,-71.1523237
PAST SALE,January-19-2017,Single Family Residential,10 Janet Rd,Arlington,MA,02474,692000,3,2.0,Arlington,1766,6000,1958,351,392,,Sold,,,http://www.redfin.com/MA/Arlington/10-Janet-Rd-02474/home/8432369,MLS PIN,72077804,N,Y,42.4261676,-71.1644129
PAST SALE,October-9-2015,Single Family Residential,185 Brattle St,Arlington,MA,02474,599000,4,2.0,Arlington,1450,9092,1949,819,413,,Sold,,,http://www.redfin.com/MA/Arlington/185-Brattle-St-02474/home/8432596,MLS PIN,71888517,N,Y,42.425742,-71.16161
PAST SALE,August-12-2016,Single Family Residential,67 Stowecroft Rd,Arlington,MA,02474,781000,3,2.5,Arlington,2041,6601,1989,511,383,,Sold,,,http://www.redfin.com/MA/Arlington/67-Stowecroft-Rd-02474/home/8426265,MLS PIN,72023259,N,Y,42.4257572,-71.1527722
PAST SALE,,Single Family Residential,75 Stowecroft Rd,Arlington,MA,02474,615000,3,1.5,,1534,8434,1959,,401,,,,,http://www.redfin.com/MA/Arlington/75-Stowecroft-Rd-02474/home/8425655,,,N,Y,42.4261727,-71.1528194
PAST SALE,October-26-2015,Single Family Residential,42 Rockland Ave,Arlington,MA,02474,487500,3,1.5,Arlington,1274,3284,1974,802,383,,Sold,,,http://www.redfin.com/MA/Arlington/42-Rockland-Ave-02474/home/8432438,MLS PIN,71863847,N,Y,42.4260809,-71.1630203
PAST SALE,April-23-2015,Single Family Residential,92 College Ave,Arlington,MA,02474,751000,3,3.0,Morningside,2408,11648,1962,988,312,,Sold,,,http://www.redfin.com/MA/Arlington/92-College-Ave-02474/home/8426867,MLS PIN,71797823,N,Y,42.4259371,-71.1587633
PAST SALE,June-30-2016,Single Family Residential,11 Huntington Rd,Arlington,MA,02474,623000,3,1.0,Arlington,1280,3092,1931,554,487,,Sold,,,http://www.redfin.com/MA/Arlington/11-Huntington-Rd-02474/home/8438879,MLS PIN,72008676,N,Y,42.430705,-71.176104
PAST SALE,June-27-2016,Single Family Residential,600 Summer St,Arlington,MA,02474,585000,3,2.0,Arlington,1344,4696,1927,557,435,,Sold,,,http://www.redfin.com/MA/Arlington/600-Summer-St-02474/home/8439281,MLS PIN,71991992,N,Y,42.4300858,-71.179233
PAST SALE,April-27-2015,Single Family Residential,614 Summer St,Arlington,MA,02474,514500,4,1.5,Arlington,1368,5150,1916,984,376,,Sold,,,http://www.redfin.com/MA/Arlington/614-Summer-St-02474/home/8438242,MLS PIN,71783608,N,Y,42.4303103,-71.179694
PAST SALE,December-1-2016,Single Family Residential,59 College Ave,Arlington,MA,02474,729000,3,2.0,Morningside,2200,10187,1958,400,331,,Sold,,,http://www.redfin.com/MA/Arlington/59-College-Ave-02474/home/8427526,MLS PIN,72074065,N,Y,42.427168,-71.1565901
PAST SALE,May-31-2016,Single Family Residential,324 Forest St,Arlington,MA,02474,491000,3,2.5,Arlington,1784,4621,1940,584,275,,Sold,,,http://www.redfin.com/MA/Arlington/324-Forest-St-02474/home/8441015,MLS PIN,71974194,N,Y,42.4354149,-71.174934
PAST SALE,October-21-2016,Single Family Residential,72 Thesda St,Arlington,MA,02474,1105000,5,3.0,Arlington,3056,9551,2016,441,362,,Sold,,,http://www.redfin.com/MA/Arlington/72-Thesda-St-02474/home/8440674,MLS PIN,72056268,N,Y,42.4346378,-71.1797602
PAST SALE,November-18-2016,Single Family Residential,155 Wright St,Arlington,MA,02474,540000,3,2.0,Arlington,1296,4000,1960,413,417,,Sold,,,http://www.redfin.com/MA/Arlington/155-Wright-St-02474/home/8440954,MLS PIN,72070948,N,Y,42.4353592,-71.1757191
PAST SALE,December-15-2016,Single Family Residential,68 Dickson Ave,Arlington,MA,02474,461000,3,1.0,Stratton,1726,8550,1956,386,267,,Sold,,,http://www.redfin.com/MA/Arlington/68-Dickson-Ave-02474/home/8441799,MLS PIN,72077728,N,Y,42.4282363,-71.1651682
PAST SALE,,Townhouse,478 Summer St,Arlington,MA,02474,439000,2,1.0,,1195,,1953,,367,,,,,http://www.redfin.com/MA/Arlington/478-Summer-St-02474/home/12099032,,,N,Y,42.4278815,-71.1745754
PAST SALE,January-17-2016,Single Family Residential,14 Osceola Path,Arlington,MA,02474,1180000,5,3.5,Morningside,4300,12475,2015,719,274,,Sold,,,http://www.redfin.com/MA/Arlington/14-Osceola-Path-02474/home/8437936,MLS PIN,71825433,N,Y,42.4358506,-71.1703342
PAST SALE,March-12-2015,Single Family Residential,31 Apache Trl,Arlington,MA,02474,780000,3,2.5,Morningside,2816,10000,1958,1030,277,,Sold,,,http://www.redfin.com/MA/Arlington/31-Apache-Trl-02474/home/8437573,MLS PIN,71786494,N,Y,42.4359397,-71.1686601
PAST SALE,September-23-2016,Single Family Residential,161 Sylvia St,Arlington,MA,02476,610000,4,2.0,Arlington Heights,1812,6780,1954,469,337,,Sold,,,http://www.redfin.com/MA/Arlington/161-Sylvia-St-02476/home/8463406,MLS PIN,72044469,N,Y,42.421157,-71.1951858
PAST SALE,November-30-2016,Single Family Residential,24 Wadsworth Rd,Arlington,MA,02476,519000,3,1.0,Poets Corner,1537,9478,1953,401,338,,Sold,,,http://www.redfin.com/MA/Arlington/24-Wadsworth-Rd-02476/home/8465024,MLS PIN,72075121,N,Y,42.4167442,-71.1974889
PAST SALE,,Single Family Residential,6 Ortona St,Arlington,MA,02476,659000,3,2.5,,1813,5402,1941,,363,,,,,http://www.redfin.com/MA/Arlington/6-Ortona-St-02476/home/8462362,,,N,Y,42.4199841,-71.1931006
PAST SALE,January-5-2016,Single Family Residential,116 Dow Ave,Arlington,MA,02476,626000,4,2.0,Arlington Heights,1650,5749,1970,731,379,,Sold,,,http://www.redfin.com/MA/Arlington/116-Dow-Ave-02476/home/8464329,MLS PIN,71924288,N,Y,42.4167139,-71.1910198
PAST SALE,November-18-2016,Single Family Residential,196 Wollaston Ave,Arlington,MA,02476,685000,3,1.5,Arlington,1835,6202,1957,413,373,,Sold,,,http://www.redfin.com/MA/Arlington/196-Wollaston-Ave-02476/home/8465755,MLS PIN,72074721,N,Y,42.4183597,-71.1922547
PAST SALE,February-16-2017,Single Family Residential,8 Corey Ln,Arlington,MA,02476,480000,5,3.0,Arlmont Village,1600,7360,1946,323,300,,Sold,,,http://www.redfin.com/MA/Arlington/8-Corey-Ln-02476/home/8464934,MLS PIN,72091796,N,Y,42.4160761,-71.2006222
PAST SALE,June-22-2015,Condo/Co-op,38 Windsor St #38,Arlington,MA,02474,499000,3,1.0,Arlington,2470,,1914,928,202,244,Sold,,,http://www.redfin.com/MA/Arlington/38-Windsor-St-02474/unit-38/home/39997250,MLS PIN,71827268,N,Y,42.4049515,-71.1386713
PAST SALE,August-16-2015,Condo/Co-op,36 River St #1,Arlington,MA,02474,542500,3,2.0,East Arlington,1200,4800,1920,873,452,100,Sold,,,http://www.redfin.com/MA/Arlington/36-River-St-02474/unit-1/home/73590704,MLS PIN,71811670,N,Y,42.4128907,-71.1410604
PAST SALE,August-4-2016,Single Family Residential,111 N UNION St,Arlington,MA,02474,756000,3,2.0,Arlington,1998,6059,1955,519,378,,Sold,,,http://www.redfin.com/MA/Arlington/111-N-Union-St-02474/home/8411908,MLS PIN,72027923,N,Y,42.4130597,-71.1361286
PAST SALE,May-9-2016,Single Family Residential,14 Lantern Ln,Arlington,MA,02474,939000,4,3.0,Morningside,3635,13078,1957,606,258,,Sold,,,http://www.redfin.com/MA/Arlington/14-Lantern-Ln-02474/home/8437370,MLS PIN,71951121,N,Y,42.435199,-71.165984
PAST SALE,November-23-2016,Single Family Residential,94 Decatur St,Arlington,MA,02474,1141450,4,2.5,East Arlington,2640,11855,2016,408,432,,Sold,,,http://www.redfin.com/MA/Arlington/94-Decatur-St-02474/home/8412545,MLS PIN,71989612,N,Y,42.414267,-71.1365715
PAST SALE,October-13-2015,Condo/Co-op,112 Decatur St #8,Arlington,MA,02474,213100,1,1.0,East Arlington,678,,1962,815,314,241,Sold,,,http://www.redfin.com/MA/Arlington/112-Decatur-St-02474/unit-8/home/8412741,MLS PIN,71895605,N,Y,42.414513,-71.1373002
PAST SALE,September-21-2015,Single Family Residential,7 Wheaton Rd,Arlington,MA,02474,580000,3,1.5,East Arlington,1316,7475,1956,837,441,,Sold,,,http://www.redfin.com/MA/Arlington/7-Wheaton-Rd-02474/home/8413327,MLS PIN,71877701,N,Y,42.4134735,-71.136551
PAST SALE,June-3-2015,Townhouse,69 Decatur St #69,Arlington,MA,02474,406500,2,1.5,East Arlington,1479,,1981,947,275,300,Sold,,,http://www.redfin.com/MA/Arlington/69-Decatur-St-02474/unit-69/home/77296228,MLS PIN,71803120,N,Y,42.4144322,-71.1348072
PAST SALE,September-15-2015,Condo/Co-op,18 Arizona Ter #4,Arlington,MA,02474,150000,1,1.0,East Arlington,586,,1965,843,256,269,Sold,,,http://www.redfin.com/MA/Arlington/4-Arizona-Ter-02474/unit-4/home/8412266,MLS PIN,71851482,N,Y,42.4132485,-71.1334872
PAST SALE,August-31-2016,Condo/Co-op,18 Arizona Ter #5,Arlington,MA,02474,178000,1,1.0,Arlington,587,,1966,492,303,330,Sold,,,http://www.redfin.com/MA/Arlington/18-Arizona-Ter-02474/unit-5/home/8412292,MLS PIN,72043627,N,Y,42.4137805,-71.1334365
PAST SALE,July-28-2016,Condo/Co-op,5 Arizona Ter #4,Arlington,MA,02474,174000,1,1.0,East Arlington,585,,1965,526,297,292,Sold,,,http://www.redfin.com/MA/Arlington/5-Arizona-Ter-02474/unit-4/home/8412475,MLS PIN,72000572,N,Y,42.4132485,-71.1334872
PAST SALE,June-16-2016,Condo/Co-op,5 Arizona Ter #1,Arlington,MA,02474,165000,1,1.0,Arlington,463,,1965,568,356,269,Sold,,,http://www.redfin.com/MA/Arlington/5-Arizona-Ter-02474/unit-1/home/11351517,MLS PIN,71996116,N,Y,42.4132485,-71.1334872
PAST SALE,March-12-2015,Condo/Co-op,14 Arizona Ter #5,Arlington,MA,02474,165000,1,1.0,Arlington,608,,1965,1030,271,286,Sold,,,http://www.redfin.com/MA/Arlington/14-Arizona-Ter-02474/unit-5/home/8412221,MLS PIN,71782010,N,Y,42.414622,-71.133624
PAST SALE,May-9-2016,Condo/Co-op,5 Arizona Ter #6,Arlington,MA,02474,195000,1,1.0,Arlington,586,,1965,606,333,299,Sold,,,http://www.redfin.com/MA/Arlington/5-Arizona-Ter-02474/unit-6/home/8412517,MLS PIN,71973397,N,Y,42.4132485,-71.1334872
PAST SALE,,Multi-Family (5+ Unit),78 Decatur St,Arlington,MA,02474,800000,4,4.0,,3234,12944,1880,,247,,,,,http://www.redfin.com/MA/Arlington/78-Decatur-St-02474/home/23456735,,,N,Y,42.413961,-71.135932
PAST SALE,June-30-2016,Condo/Co-op,20 Mystic Valley Pkwy #20,Arlington,MA,02474,575000,3,2.0,Arlington,1830,,1927,554,314,,Sold,,,http://www.redfin.com/MA/Arlington/20-Mystic-Valley-Pkwy-02474/unit-20/home/104420321,MLS PIN,71984510,N,Y,42.4144465,-71.1329298
PAST SALE,June-16-2016,Multi-Family (2-4 Unit),19-21 Mount Vernon St,Arlington,MA,02476,650000,6,4.0,Arlington,2565,2943,1922,568,253,,Sold,,,http://www.redfin.com/MA/Arlington/19-21-Mount-Vernon-St-02476/home/23458485,MLS PIN,71969873,N,Y,42.418237,-71.1684889
PAST SALE,,Townhouse,28 Laurel St,Arlington,MA,02476,415000,2,1.0,,895,,1962,,464,,,,,http://www.redfin.com/MA/Arlington/28-Laurel-St-02476/home/12099004,,,N,Y,42.4214092,-71.1704765
PAST SALE,December-14-2015,Condo/Co-op,993 Mass Ave #215,Arlington,MA,02476,314000,2,1.5,Arlington,821,,1971,753,382,473,Sold,,,http://www.redfin.com/MA/Arlington/993-Massachusetts-Ave-02476/unit-215/home/8418665,MLS PIN,71906077,N,Y,42.4199377,-71.1676246
PAST SALE,October-30-2015,Single Family Residential,96 School St,Arlington,MA,02476,534000,4,2.0,Arlington,1600,5962,1930,798,334,,Sold,,,http://www.redfin.com/MA/Arlington/96-School-St-02476/home/8452761,MLS PIN,71900902,N,Y,42.4182203,-71.1736639
PAST SALE,October-28-2015,Single Family Residential,51 Robbins Rd,Arlington,MA,02476,617500,5,2.5,Arlington Heights,2543,9583,1920,800,243,,Sold,,,http://www.redfin.com/MA/Arlington/51-Robbins-Rd-02476/home/8452604,MLS PIN,71889177,N,Y,42.4194314,-71.1740432
PAST SALE,,Condo/Co-op,993 Massachusetts Ave Apt 113,Arlington,MA,02476,200000,1,1.5,,581,,1971,,344,,,,,http://www.redfin.com/MA/Arlington/993-Massachusetts-Ave-02476/unit-113/home/8418495,,,N,Y,42.4199377,-71.1676246
PAST SALE,July-16-2015,Condo/Co-op,42-44 Menotomy Rd #44,Arlington,MA,02476,460000,2,1.0,Arlington,1186,,1926,904,388,139,Sold,,,http://www.redfin.com/MA/Arlington/42-44-Menotomy-Rd-02476/unit-44/home/88635042,MLS PIN,71846808,N,Y,42.419082,-71.17104
PAST SALE,,Condo/Co-op,1 School St Apt 409,Arlington,MA,02476,270000,1,1.0,,950,,1925,,284,,,,,http://www.redfin.com/MA/Arlington/1-School-St-02476/unit-409/home/8445195,,,N,Y,42.4204033,-71.1717784
PAST SALE,,Condo/Co-op,10 Orchard Pl,Arlington,MA,02476,450000,3,3.0,,1902,,1940,,237,,,,,http://www.redfin.com/MA/Arlington/10-Orchard-Pl-02476/home/8469054,,,N,Y,42.4198417,-71.1691762
PAST SALE,February-27-2015,Condo/Co-op,995 Mass Ave #103,Arlington,MA,02476,199000,1,1.0,Arlington,479,,1971,1043,415,254,Sold,,,http://www.redfin.com/MA/Arlington/995-Massachusetts-Ave-02476/unit-103/home/11774606,MLS PIN,71779756,N,Y,42.4197299,-71.1679573
PAST SALE,October-9-2015,Townhouse,40 Brattle #14,Arlington,MA,02476,594000,3,2.5,Arlington,2054,,2007,819,289,348,Sold,,,http://www.redfin.com/MA/Arlington/40-Brattle-St-02476/unit-14/home/17032926,MLS PIN,71895237,N,Y,42.421961,-71.169112
PAST SALE,February-18-2016,Single Family Residential,39 Davis Ave,Arlington,MA,02474,666500,3,2.0,Arlington,1556,5393,1921,687,428,,Sold,,,http://www.redfin.com/MA/Arlington/39-Davis-Ave-02474/home/8425443,MLS PIN,71944241,N,Y,42.4229125,-71.1510555
PAST SALE,July-17-2015,Single Family Residential,23 Beverly Rd,Arlington,MA,02474,805000,6,1.5,Arlington,2702,8900,1953,903,298,,Sold,,,http://www.redfin.com/MA/Arlington/23-Beverly-Rd-02474/home/8425913,MLS PIN,71827370,N,Y,42.4246809,-71.1502508
PAST SALE,,Single Family Residential,74 Beverly Rd,Arlington,MA,02474,760000,2,1.5,,2176,11357,1950,,349,,,,,http://www.redfin.com/MA/Arlington/74-Beverly-Rd-02474/home/8425866,,,N,Y,42.4261994,-71.1509472
PAST SALE,May-10-2016,Condo/Co-op,12 Pond Ln #65,Arlington,MA,02474,290000,1,1.0,Arlington,698,,1972,605,415,312,Sold,,,http://www.redfin.com/MA/Arlington/12-Pond-Ln-02474/unit-65/home/8402809,MLS PIN,71991189,N,Y,42.4121942,-71.1497947
PAST SALE,December-29-2016,Single Family Residential,10 Palmer St,Arlington,MA,02474,560000,3,2.0,Arlington,1400,3769,1850,372,400,,Sold,,,http://www.redfin.com/MA/Arlington/10-Palmer-St-02474/home/8410688,MLS PIN,72083336,N,Y,42.4126514,-71.1482953
PAST SALE,June-19-2015,Townhouse,8 Whittemore St #8,Arlington,MA,02474,598000,4,2.5,East Arlington,1850,,1900,931,323,200,Sold,,,http://www.redfin.com/MA/Arlington/8-Whittemore-St-02474/unit-8/home/79015352,MLS PIN,71826743,N,Y,42.4133088,-71.1504273
PAST SALE,December-2-2015,Townhouse,6 Whittemore St #6,Arlington,MA,02474,475000,4,1.5,Arlington,1850,,1900,765,257,200,Sold,,,http://www.redfin.com/MA/Arlington/6-Whittemore-St-02474/unit-6/home/101794488,MLS PIN,71928219,N,Y,42.4133088,-71.1504273
PAST SALE,,Townhouse,35 Ridge St,Winchester,MA,01890,750000,4,3.0,,2588,10342,1976,,290,,,,,http://www.redfin.com/MA/Winchester/35-Ridge-St-01890/home/11461820,,,N,Y,42.436241,-71.173118
PAST SALE,,Single Family Residential,9 Foxmeadow Ln,Arlington,MA,02474,1335000,3,4.0,,3436,12020,2015,,389,,,,,http://www.redfin.com/MA/Arlington/9-Foxmeadow-Ln-02474/home/8437235,,,N,Y,42.4338955,-71.1651226
PAST SALE,July-20-2016,Single Family Residential,55 Tomahawk Rd,Arlington,MA,02474,737000,4,2.5,Morningside,2002,8287,1961,534,368,,Sold,,,http://www.redfin.com/MA/Arlington/55-Tomahawk-Rd-02474/home/8437848,MLS PIN,72004350,N,Y,42.4340978,-71.1709486
PAST SALE,January-8-2015,Single Family Residential,32 Greeley Cir,Arlington,MA,02474,648000,3,1.5,Morningside,2601,9050,1958,1093,249,,Sold,,,http://www.redfin.com/MA/Arlington/32-Greeley-Cir-02474/home/8435978,MLS PIN,71752711,N,Y,42.4321826,-71.1690736
PAST SALE,July-24-2016,Single Family Residential,207 Mountain Ave,Arlington,MA,02474,1075000,5,3.0,Arlington,3081,8978,1926,530,349,,Sold,,,http://www.redfin.com/MA/Arlington/207-Mountain-Ave-02474/home/8439456,MLS PIN,72007963,N,Y,42.4301368,-71.1682918
PAST SALE,January-20-2015,Single Family Residential,3 Huntington Rd,Arlington,MA,02474,536000,3,1.5,Arlington,1313,3245,1931,1081,408,,Sold,,,http://www.redfin.com/MA/Arlington/3-Huntington-Rd-02474/home/8439898,MLS PIN,71768512,N,Y,42.4308043,-71.1757712
PAST SALE,,Single Family Residential,31 Tomahawk Rd,Arlington,MA,02474,350000,3,2.5,,2156,8174,1960,,162,,,,,http://www.redfin.com/MA/Arlington/31-Tomahawk-Rd-02474/home/8435824,,,N,Y,42.4327391,-71.1696842
PAST SALE,March-31-2016,Single Family Residential,304 Washington St,Arlington,MA,02474,950000,4,2.5,Arlington,2822,6325,2015,645,337,,Sold,,,http://www.redfin.com/MA/Arlington/304-Washington-St-02474/home/8441387,MLS PIN,71958498,N,Y,42.4319029,-71.1716949
PAST SALE,July-7-2015,Single Family Residential,289 Forest St,Arlington,MA,02474,550000,3,1.5,Turkey Hill,1372,6341,1977,913,401,,Sold,,,http://www.redfin.com/MA/Arlington/289-Forest-St-02474/home/8441227,MLS PIN,71832020,N,Y,42.434013,-71.1752145
PAST SALE,April-29-2016,Single Family Residential,27 Hancock St,Arlington,MA,02474,623000,3,1.5,Arlington,1752,7007,1959,616,356,,Sold,,,http://www.redfin.com/MA/Arlington/27-Hancock-St-02474/home/8441208,MLS PIN,71952688,N,Y,42.4340206,-71.1761329
PAST SALE,June-30-2015,Single Family Residential,306 Forest St,Arlington,MA,02474,521000,3,1.5,Arlington,1885,7396,1955,920,276,,Sold,,,http://www.redfin.com/MA/Arlington/306-Forest-St-02474/home/11774727,MLS PIN,71814348,N,Y,42.4348118,-71.175389
PAST SALE,July-29-2016,Single Family Residential,15 Apache Trl,Arlington,MA,02474,850000,3,2.5,Arlington,2539,,1955,525,335,,Sold,,,http://www.redfin.com/MA/Arlington/15-Apache-Trl-02474/home/8437592,MLS PIN,72023394,N,Y,42.4359297,-71.1671804
PAST SALE,July-10-2015,Single Family Residential,23 Apache Trl,Arlington,MA,02474,873500,4,2.5,Morningside,2664,10000,1957,910,328,,Sold,,,http://www.redfin.com/MA/Arlington/23-Apache-Trl-02474/home/8437581,MLS PIN,71838119,N,Y,42.435934,-71.167926
PAST SALE,,Single Family Residential,39 Lorraine Ter,Arlington,MA,02474,531000,3,1.0,,1619,6807,1953,,328,,,,,http://www.redfin.com/MA/Arlington/39-Lorraine-Ter-02474/home/8441423,,,N,Y,42.4339828,-71.173685
PAST SALE,,Single Family Residential,31 Greeley Cir,Arlington,MA,02474,270000,3,2.0,,1480,7250,1958,,182,,,,,http://www.redfin.com/MA/Arlington/31-Greeley-Cir-02474/home/8435892,,,N,Y,42.4325139,-71.1687355
PAST SALE,December-15-2015,Single Family Residential,32 Teresa Cir,Arlington,MA,02474,595000,4,1.5,Morningside,1665,8325,1964,752,357,,Sold,,,http://www.redfin.com/MA/Arlington/32-Teresa-Cir-02474/home/8436341,MLS PIN,71919783,N,Y,42.4310372,-71.1669176
PAST SALE,,Single Family Residential,12 Clyde Ter,Arlington,MA,02474,525000,3,2.0,,1380,6966,1955,,380,,,,,http://www.redfin.com/MA/Arlington/12-Clyde-Ter-02474/home/8437772,,,N,Y,42.4354007,-71.1732804
PAST SALE,June-1-2016,Single Family Residential,7 Lorraine Ter,Arlington,MA,02474,750000,3,3.0,Turkey Hill,1951,6120,1960,583,384,,Sold,,,http://www.redfin.com/MA/Arlington/7-Lorraine-Ter-02474/home/8441265,MLS PIN,71966504,N,Y,42.4346926,-71.1745704
PAST SALE,July-29-2016,Single Family Residential,38 Hancock St,Arlington,MA,02474,576000,3,2.0,Arlington,2107,6098,1960,525,273,,Sold,,,http://www.redfin.com/MA/Arlington/38-Hancock-St-02474/home/8441141,MLS PIN,72020260,N,Y,42.4343312,-71.1764639
PAST SALE,January-15-2016,Single Family Residential,11 Fox Meadow Ln,Arlington,MA,02474,931000,4,3.5,Morningside,4000,13340,1960,721,233,,Sold,,,http://www.redfin.com/MA/Arlington/11-Foxmeadow-Ln-02474/home/8437231,MLS PIN,71859935,N,Y,42.4338615,-71.1654627
PAST SALE,March-31-2016,Single Family Residential,11 Lantern Ln,Arlington,MA,02474,1134375,4,2.5,Arlington,3028,9660,1997,645,375,,Sold,,,http://www.redfin.com/MA/Arlington/11-Lantern-Ln-02474/home/8437295,MLS PIN,71950043,N,Y,42.4358364,-71.1658194
PAST SALE,November-3-2015,Single Family Residential,4 Chester St,Arlington,MA,02476,610000,3,1.5,Brackett,1881,6565,1940,794,324,,Sold,,,http://www.redfin.com/MA/Arlington/4-Chester-St-02476/home/8455475,MLS PIN,71905011,N,Y,42.412239,-71.181601
PAST SALE,August-6-2016,Condo/Co-op,128 Pleasant St #208,Arlington,MA,02476,446900,2,2.0,Arlington,1080,,1960,517,414,441,Sold,,,http://www.redfin.com/MA/Arlington/128-Pleasant-St-02476/unit-208/home/8442374,MLS PIN,72038050,N,Y,42.4119275,-71.1574066
PAST SALE,August-7-2015,Single Family Residential,65 Princeton Rd,Arlington,MA,02427,845000,3,1.5,Kelwyn Manor,1999,6725,1939,882,423,,Sold,,,http://www.redfin.com/MA/Arlington/65-Princeton-Rd-02474/home/8405698,MLS PIN,71857719,N,Y,42.4046401,-71.1530342
PAST SALE,,Townhouse,85 Beacon St,Arlington,MA,02474,875000,3,2.5,,1976,7500,2014,,443,,,,,http://www.redfin.com/MA/Arlington/85-Beacon-St-02474/home/8416037,,,N,Y,42.4163883,-71.1421379
PAST SALE,,Condo/Co-op,31 Amsden St,Arlington,MA,02474,620000,3,1.0,,2140,,1937,,290,,,,,http://www.redfin.com/MA/Arlington/31-Amsden-St-02474/home/8407232,,,N,Y,42.4041009,-71.1380124
PAST SALE,August-31-2015,Single Family Residential,46 Spy Pond Pkwy,Arlington,MA,02474,850000,3,2.0,Arlington,1584,9425,1949,858,537,,Sold,,,http://www.redfin.com/MA/Arlington/46-Spy-Pond-Pkwy-02474/home/8405878,MLS PIN,71874612,N,Y,42.4050343,-71.155846
PAST SALE,January-22-2015,Single Family Residential,6 Thesda St,Arlington,MA,02474,625000,3,3.5,Arlington,1904,12035,1994,1079,328,,Sold,,,http://www.redfin.com/MA/Arlington/6-Thesda-St-02474/home/8438634,MLS PIN,71745416,N,Y,42.4347408,-71.1829755
PAST SALE,,Condo/Co-op,16 School St,Arlington,MA,02476,489000,3,1.0,,1307,,1926,,374,,,,,http://www.redfin.com/MA/Arlington/16-School-St-02476/home/8468891,,,N,Y,42.420203,-71.1710702
PAST SALE,May-4-2016,Multi-Family (2-4 Unit),27-29 Menotomy Rd,Arlington,MA,02476,930000,7,3.0,Brattle Station,2364,5962,1925,611,393,,Sold,,,http://www.redfin.com/MA/Arlington/27-29-Menotomy-Rd-02476/home/23458045,MLS PIN,71970089,N,Y,42.41971,-71.170968
PAST SALE,October-7-2016,Single Family Residential,374 Gray St,Arlington,MA,02476,705000,3,2.0,Arlington,2282,4553,1928,455,309,,Sold,,,http://www.redfin.com/MA/Arlington/374-Gray-St-02476/home/11536340,MLS PIN,72041408,N,Y,42.4195969,-71.1777195
PAST SALE,June-29-2015,Single Family Residential,59 Robbins Rd,Arlington,MA,02476,875000,4,2.5,Brackett,2649,9386,1930,921,330,,Sold,,,http://www.redfin.com/MA/Arlington/59-Robbins-Rd-02476/home/8452831,MLS PIN,71822685,N,Y,42.4191166,-71.1745575
PAST SALE,,Condo/Co-op,14 Menotomy Rd,Arlington,MA,02476,519000,3,2.0,,1620,,1920,,320,,,,,http://www.redfin.com/MA/Arlington/14-Menotomy-Rd-02476/home/23457517,,,N,Y,42.4199061,-71.1701314
PAST SALE,August-13-2015,Single Family Residential,110 Quincy St,Arlington,MA,02476,821000,4,2.5,Arlington Heights,2156,4704,1928,876,381,,Sold,,,http://www.redfin.com/MA/Arlington/110-Quincy-St-02476/home/8452882,MLS PIN,71864181,N,Y,42.419086,-71.175503
PAST SALE,September-9-2015,Single Family Residential,27 Oakland Ave,Arlington,MA,02476,605000,3,2.0,Arlington,1577,3708,1925,849,384,,Sold,,,http://www.redfin.com/MA/Arlington/27-Oakland-Ave-02476/home/8458746,MLS PIN,71878644,N,Y,42.4214589,-71.178804
PAST SALE,December-14-2016,Condo/Co-op,13-15 Laurel #1,Arlington,MA,02476,580000,2,2.0,Arlington,1510,3963,1907,387,384,150,Sold,,,http://www.redfin.com/MA/Arlington/13-15-Laurel-St-02476/unit-1/home/109426079,MLS PIN,72084667,N,Y,42.421452,-71.169953
PAST SALE,,Condo/Co-op,16 Cliff St,Arlington,MA,02476,740000,4,3.5,,4137,,1903,,179,,,,,http://www.redfin.com/MA/Arlington/16-Cliff-St-02476/home/8466206,,,N,Y,42.420073,-71.179469
PAST SALE,January-27-2016,Townhouse,1 School St #404,Arlington,MA,02476,502000,2,2.0,Arlington Heights,1530,,1925,709,328,392,Sold,,,http://www.redfin.com/MA/Arlington/1-School-St-02476/unit-404/home/8445167,MLS PIN,71931095,N,Y,42.4204033,-71.1717784
PAST SALE,November-15-2016,Single Family Residential,311 Gray St,Arlington,MA,02476,740000,3,2.0,Arlington,2042,6770,1926,416,362,,Sold,,,http://www.redfin.com/MA/Arlington/311-Gray-St-02476/home/8452676,MLS PIN,72077973,N,Y,42.4184325,-71.174742
PAST SALE,February-27-2015,Single Family Residential,70 Robbins Rd,Arlington,MA,02476,1000000,5,2.5,Brackett School,2200,5000,1926,1043,455,,Sold,,,http://www.redfin.com/MA/Arlington/70-Robbins-Rd-02476/home/8452683,MLS PIN,71786163,N,Y,42.4185443,-71.1746144
PAST SALE,March-29-2017,Single Family Residential,89 Robbins Rd,Arlington,MA,02474,550000,2,1.0,Arlington Heights,768,4725,1950,282,716,,Sold,,,http://www.redfin.com/MA/Arlington/89-Robbins-Rd-02476/home/8453094,MLS PIN,72117695,N,Y,42.4181951,-71.1758158
PAST SALE,May-18-2016,Condo/Co-op,1055 Massachusetts Ave #1,Arlington,MA,02476,429900,2,1.0,Brattle Station,1200,4110,1906,597,358,150,Sold,,,http://www.redfin.com/MA/Arlington/1055-Massachusetts-Ave-02476/unit-1/home/104111569,MLS PIN,71970470,N,Y,42.4208103,-71.17018
PAST SALE,July-28-2015,Condo/Co-op,5 Brattle St #0,Arlington,MA,02476,410000,2,2.0,Arlington,1177,,1920,892,348,134,Sold,,,http://www.redfin.com/MA/Arlington/5-Brattle-St-02476/unit-0/home/113222087,MLS PIN,71845345,N,Y,42.4206977,-71.1696624
PAST SALE,November-21-2016,Multi-Family (2-4 Unit),13 Cottage Ave,Arlington,MA,02474,975000,7,4.0,Arlington,3795,4765,1885,410,257,,Sold,,,http://www.redfin.com/MA/Arlington/13-Cottage-Ave-02474/home/8407494,MLS PIN,72060162,N,Y,42.4030729,-71.1355816
PAST SALE,,Multi-Family (2-4 Unit),79 Cottage Ave,Arlington,MA,02474,720000,5,3.0,,2746,4950,1971,,262,,,,,http://www.redfin.com/MA/Arlington/79-Cottage-Ave-02474/home/8407488,,,N,Y,42.4031774,-71.1357053
PAST SALE,June-30-2016,Multi-Family (2-4 Unit),7-9 Cottage Ave,Arlington,MA,02474,720000,4,3.0,East Arlington,2288,4950,1971,554,315,,Sold,,,http://www.redfin.com/MA/Arlington/9-Cottage-Ave-02474/home/104534822,MLS PIN,71990258,N,Y,42.403399,-71.1360431
PAST SALE,June-1-2015,Condo/Co-op,215 Massachusetts #1,Arlington,MA,02474,294000,1,1.0,East Arlington,678,,1966,949,434,226,Sold,,,http://www.redfin.com/MA/Arlington/1-Massachusetts-Ave-02474/unit-1/home/113225878,MLS PIN,71778993,N,Y,42.4018617,-71.1361066
PAST SALE,May-2-2016,Single Family Residential,6 Gorham St,Arlington,MA,02474,705000,3,2.0,Arlington,1600,4700,1951,613,441,,Sold,,,http://www.redfin.com/MA/Arlington/6-Gorham-St-02474/home/8428465,MLS PIN,71963534,N,Y,42.4259253,-71.1709227
PAST SALE,July-28-2015,Single Family Residential,9 Pamela Dr,Arlington,MA,02474,650000,3,2.0,Arlington,1626,7150,1951,892,400,,Sold,,,http://www.redfin.com/MA/Arlington/9-Pamela-Dr-02474/home/8426502,MLS PIN,71852709,N,Y,42.4257264,-71.1583419
PAST SALE,September-27-2016,Single Family Residential,15 Draper Ave,Arlington,MA,02474,820500,3,1.5,Arlington,2105,5280,1930,465,390,,Sold,,,http://www.redfin.com/MA/Arlington/15-Draper-Ave-02474/home/8425288,MLS PIN,72063178,N,Y,42.4240697,-71.1519259
PAST SALE,November-29-2016,Single Family Residential,184 Brattle St,Arlington,MA,02474,470000,3,1.5,Arlington,1392,4175,1955,402,338,,Sold,,,http://www.redfin.com/MA/Arlington/184-Brattle-St-02474/home/8432534,MLS PIN,72068435,N,Y,42.4258449,-71.1621142
PAST SALE,December-9-2015,Multi-Family (2-4 Unit),32 Glen Ave,Arlington,MA,02474,710000,7,3.0,Arlington,2539,6419,1925,758,280,,Sold,,,http://www.redfin.com/MA/Arlington/32-Glen-Ave-02474/home/8423788,MLS PIN,71912862,N,Y,42.4221059,-71.1522505
PAST SALE,October-14-2015,Single Family Residential,66 Melvin Rd,Arlington,MA,02474,940770,4,2.5,Arlington,2644,10600,1961,814,356,,Sold,,,http://www.redfin.com/MA/Arlington/66-Melvin-Rd-02474/home/8426553,MLS PIN,71885316,N,Y,42.428305,-71.1599884
PAST SALE,February-18-2016,Condo/Co-op,215 Massachusetts #21,Arlington,MA,02474,325000,1,1.0,Arlington,658,,1966,687,494,219,Sold,,,http://www.redfin.com/MA/Arlington/215-Massachusetts-02474/unit-21/home/102397664,MLS PIN,71944906,N,Y,42.4232158,-71.1537637
PAST SALE,January-12-2017,Single Family Residential,185 Summer St,Arlington,MA,02474,600000,3,1.5,Arlington,1665,12279,1947,358,360,,Sold,,,http://www.redfin.com/MA/Arlington/185-Summer-St-02474/home/8425083,MLS PIN,72070530,N,Y,42.4219961,-71.1625035
PAST SALE,May-23-2016,Condo/Co-op,1055 Massachusetts Ave #3,Arlington,MA,02476,429900,2,1.0,Brattle Station,1200,4110,1906,592,358,150,Sold,,,http://www.redfin.com/MA/Arlington/1055-Massachusetts-Ave-02476/unit-3/home/104111573,MLS PIN,71970472,N,Y,42.4208103,-71.17018
PAST SALE,July-20-2016,Single Family Residential,90 Decatur St,Arlington,MA,02474,1095000,4,2.5,East Arlington,2640,15606,2016,534,415,,Sold,,,http://www.redfin.com/MA/Arlington/90-Decatur-St-02474/home/104210370,MLS PIN,71973442,N,Y,42.413969,-71.136289
PAST SALE,,Townhouse,26 Mott St,Arlington,MA,02474,725000,6,5.0,,4504,6030,2016,,161,,,,,http://www.redfin.com/MA/Arlington/26-Mott-St-02474/home/8405018,,,N,Y,42.402207,-71.15027
PAST SALE,November-25-2015,Single Family Residential,59 Spy Pond Pkwy,Arlington,MA,02474,1350000,4,2.5,Kelwyn Manor,3426,7775,2015,772,394,75,Sold,,,http://www.redfin.com/MA/Arlington/59-Spy-Pond-Pkwy-02474/home/8406012,MLS PIN,71919896,N,Y,42.4054114,-71.1552115
PAST SALE,April-17-2015,Condo/Co-op,9 Mott St Unit B,Arlington,MA,02474,675000,3,2.0,East Arlington,1410,6061,1940,994,479,180,Sold,,,http://www.redfin.com/MA/Arlington/9-Mott-St-02474/unit-B/home/12527030,MLS PIN,71803006,N,Y,42.4027,-71.1495639
PAST SALE,February-2-2015,Townhouse,23 Mott St #1,Arlington,MA,02474,790000,3,2.5,East Arlington,2300,,2014,1068,343,,Sold,,,http://www.redfin.com/MA/Arlington/23-Mott-St-02474/unit-1/home/59428131,MLS PIN,71766181,N,Y,42.4026046,-71.1502377
PAST SALE,May-26-2015,Single Family Residential,24 Princeton Rd,Arlington,MA,02474,675000,3,1.0,Kelwyn Manor,1415,6728,1941,955,477,,Sold,,,http://www.redfin.com/MA/Arlington/24-Princeton-Rd-02474/home/8404040,MLS PIN,71806193,N,Y,42.4056467,-71.1486953
PAST SALE,,Multi-Family (2-4 Unit),23 Mott St,Arlington,MA,02474,790000,5,2.0,,2590,6003,1941,,305,,,,,http://www.redfin.com/MA/Arlington/23-Mott-St-02474/home/8404983,,,N,Y,42.4024271,-71.15019
PAST SALE,February-28-2017,Condo/Co-op,136 Lake St #2,Arlington,MA,02474,736000,4,3.0,Arlington,1775,,1945,311,415,76,Sold,,,http://www.redfin.com/MA/Arlington/136-Lake-St-02474/unit-2/home/112854102,MLS PIN,72105704,N,Y,42.4034284,-71.1508386
PAST SALE,,Single Family Residential,189 Lake St,Arlington,MA,02474,700000,2,2.5,,1353,7924,1938,,517,,,,,http://www.redfin.com/MA/Arlington/189-Lake-St-02474/home/8405348,,,N,Y,42.4030558,-71.1544126
PAST SALE,June-26-2015,Condo/Co-op,34 Hamilton Rd #106,Arlington,MA,02474,183000,0,1.0,Arlington,370,,1965,924,495,246,Sold,,,http://www.redfin.com/MA/Arlington/34-Hamilton-Rd-02474/unit-106/home/8406729,MLS PIN,71840467,N,Y,42.4080105,-71.1490679
PAST SALE,,Condo/Co-op,34 Hamilton Rd Apt 403,Arlington,MA,02474,282000,1,1.0,,502,,1985,,562,,,,,http://www.redfin.com/MA/Arlington/34-Hamilton-Rd-02474/unit-403/home/8406843,,,N,Y,42.4080105,-71.1490679
PAST SALE,September-14-2015,Condo/Co-op,34 Hamilton Rd #503,Arlington,MA,02474,285000,1,1.0,Arlington,502,,1985,844,568,246,Sold,,,http://www.redfin.com/MA/Arlington/34-Hamilton-Rd-02474/unit-503/home/8406892,MLS PIN,71878964,N,Y,42.4080105,-71.1490679
PAST SALE,August-28-2016,Condo/Co-op,34 Hamilton Rd #504,Arlington,MA,02474,360000,1,1.0,East Arlington,747,,1965,495,482,365,Sold,,,http://www.redfin.com/MA/Arlington/34-Hamilton-Rd-02474/unit-504/home/8406897,MLS PIN,72034597,N,Y,42.4080105,-71.1490679
PAST SALE,,Multi-Family (2-4 Unit),25 Pondview Rd,Arlington,MA,02474,645000,4,3.0,,3164,5574,1924,,204,,,,,http://www.redfin.com/MA/Arlington/25-Pondview-Rd-02474/home/23456473,,,N,Y,42.4049173,-71.1496808
PAST SALE,August-30-2016,Condo/Co-op,34 Hamilton Rd #103,Arlington,MA,02474,300500,1,1.0,Arlington,502,,1965,493,599,319,Sold,,,http://www.redfin.com/MA/Arlington/34-Hamilton-Rd-02474/unit-103/home/11351426,MLS PIN,72038391,N,Y,42.4080105,-71.1490679
PAST SALE,March-31-2017,Condo/Co-op,32 Hamilton Rd #306,Arlington,MA,02474,460000,2,1.0,Arlington,891,,1985,280,516,416,Sold,,,http://www.redfin.com/MA/Arlington/32-Hamilton-Rd-02474/unit-306/home/8406681,MLS PIN,72125139,N,Y,42.4078047,-71.1489356
PAST SALE,November-3-2015,Single Family Residential,263 Lake St,Arlington,MA,02474,422000,3,1.5,Arlington,1152,6254,1939,794,366,,Sold,,,http://www.redfin.com/MA/Arlington/263-Lake-St-02474/home/8406980,MLS PIN,71889644,N,Y,42.4029102,-71.158191
PAST SALE,,Townhouse,16 Mott St,Arlington,MA,02474,888000,4,2.5,,2840,,2014,,313,,,,,http://www.redfin.com/MA/Arlington/16-Mott-St-02474/home/58902907,,,N,Y,42.4025238,-71.1497244
PAST SALE,December-23-2016,Townhouse,16 Mott St #16,Arlington,MA,02474,888000,3,2.5,Arlington,2300,,2014,378,386,150,Sold,,,http://www.redfin.com/MA/Arlington/16-Mott-St-02474/unit-16/home/110298338,MLS PIN,72083943,N,Y,42.4025233,-71.1497244
PAST SALE,January-6-2015,Multi-Family (2-4 Unit),5-7 Homestead Rd,Arlington,MA,02474,705500,5,2.0,East Arlington,2691,6303,1931,1095,262,,Sold,,,http://www.redfin.com/MA/Arlington/7-Homestead-Rd-02474/home/113251926,MLS PIN,71760227,N,Y,42.4035765,-71.1506752
PAST SALE,,Townhouse,22 Russell St,Arlington,MA,02474,163093,1,1.5,,1567,,2003,,104,,,,,http://www.redfin.com/MA/Arlington/22-Russell-St-02474/home/23459368,,,N,Y,42.4178204,-71.1524322
PAST SALE,,Condo/Co-op,24-26 Glen Ave,Arlington,MA,02474,526000,2,1.5,,1682,,1925,,313,,,,,http://www.redfin.com/MA/Arlington/24-26-Glen-Ave-02474/home/40431380,,,N,Y,42.422292,-71.152617
PAST SALE,August-7-2015,Townhouse,24 Swan Pl Unit B,Arlington,MA,02476,662500,3,3.0,Arlington,1828,8276,1910,882,362,247,Sold,,,http://www.redfin.com/MA/Arlington/24-Swan-Pl-02476/unit-B/home/40431417,MLS PIN,71845563,N,Y,42.4139385,-71.1532535
PAST SALE,March-8-2017,Single Family Residential,162 Mystic St,Arlington,MA,02474,550000,3,1.5,Arlington,2187,6462,1950,303,251,,Sold,,,http://www.redfin.com/MA/Arlington/162-Mystic-St-02474/home/8424022,MLS PIN,72105760,N,Y,42.420578,-71.1536407
PAST SALE,,Condo/Co-op,10 Swan St #2,Arlington,MA,02476,650000,3,1.5,,2115,,1860,,307,,,,,http://www.redfin.com/MA/Arlington/10-Swan-St-02476/unit-2/home/55108858,,,N,Y,42.4146359,-71.1532273
PAST SALE,,Townhouse,44 Russell Pl,Arlington,MA,02474,510000,1,2.5,,1226,,2003,,416,,,,,http://www.redfin.com/MA/Arlington/44-Russell-Pl-02474/home/23459014,,,N,Y,42.4176264,-71.1543916
PAST SALE,April-16-2015,Townhouse,44 Russell Pl #44,Arlington,MA,02474,510000,2,2.5,Arlington,1226,,2003,995,416,263,Sold,,,http://www.redfin.com/MA/Arlington/44-Russell-Pl-02474/unit-44/home/77511804,MLS PIN,71795427,N,Y,42.4176264,-71.1543916
PAST SALE,,Townhouse,19 Prescott St,Arlington,MA,02474,580000,2,2.5,,1498,,1998,,387,,,,,http://www.redfin.com/MA/Arlington/19-Prescott-St-02474/home/8430699,,,N,Y,42.4173536,-71.1517571
PAST SALE,August-14-2015,Condo/Co-op,14 Wellington St #1,Arlington,MA,02476,775000,2,2.5,Arlington,2476,,1888,875,313,1133,Sold,,,http://www.redfin.com/MA/Arlington/14-Wellington-St-02476/unit-1/home/8466413,MLS PIN,71835652,N,Y,42.412989,-71.154782
PAST SALE,July-11-2016,Multi-Family (2-4 Unit),39 Russell St,Arlington,MA,02474,1220000,5,3.0,Arlington,3364,16335,1865,543,363,,Sold,,,http://www.redfin.com/MA/Arlington/39-Russell-St-02474/home/8423338,MLS PIN,71988337,N,Y,42.4180073,-71.1535398
PAST SALE,,Townhouse,11 Russell Pl,Arlington,MA,02474,580000,2,2.5,,1422,,2003,,408,,,,,http://www.redfin.com/MA/Arlington/11-Russell-Pl-02474/home/23456491,,,N,Y,42.4180841,-71.1543362
PAST SALE,December-2-2016,Single Family Residential,519 Summer St,Arlington,MA,02474,630000,3,1.5,Arlington,1448,4483,1930,399,435,,Sold,,,http://www.redfin.com/MA/Arlington/519-Summer-St-02474/home/8434158,MLS PIN,72076594,N,Y,42.4291134,-71.1752905
PAST SALE,,Condo/Co-op,6 Arizona Ter,Arlington,MA,02474,141500,1,1.0,,586,,1965,,241,,,,,http://www.redfin.com/MA/Arlington/6-Arizona-Ter-02474/home/8412510,,,N,Y,42.4132485,-71.1334872
PAST SALE,July-27-2016,Single Family Residential,211 Pleasant St,Arlington,MA,02476,790000,5,2.0,Pleasant Street Historic District,2596,14685,1830,527,304,,Sold,,,http://www.redfin.com/MA/Arlington/211-Pleasant-St-02476/home/8442899,MLS PIN,71991354,N,Y,42.4082368,-71.1604214
PAST SALE,August-15-2016,Townhouse,11 Russell Pl #11,Arlington,MA,02474,580000,2,2.5,Arlington,1422,,2004,508,408,283,Sold,,,http://www.redfin.com/MA/Arlington/11-Russell-Pl-02474/unit-11/home/55513666,MLS PIN,71994962,N,Y,42.4180841,-71.1543362
PAST SALE,,Townhouse,36 Bartlett Ave,Arlington,MA,02476,901500,3,3.5,,2138,,1890,,422,,,,,http://www.redfin.com/MA/Arlington/36-Bartlett-Ave-02476/home/39582019,,,N,Y,42.4148013,-71.1609869
PAST SALE,,Condo/Co-op,1 Watermill Pl Unit 211,Arlington,MA,02476,369000,2,2.0,,1058,,1988,,349,,,,,http://www.redfin.com/MA/Arlington/1-Watermill-Pl-02476/unit-211/home/8421381,,,N,Y,42.42504,-71.179368
PAST SALE,,Vacant Land,Ridge St,Arlington,MA,02474,330000,,,,,8001,,,,,,,,http://www.redfin.com/MA/Arlington/Ridge-St-02474/home/76481201,,,N,Y,42.430604,-71.165076
PAST SALE,October-28-2016,Single Family Residential,190 Lowell St,Arlington,MA,02474,605000,4,1.5,Arlington Heights,1565,8272,1952,434,387,,Sold,,,http://www.redfin.com/MA/Arlington/190-Lowell-St-02474/home/8422289,MLS PIN,72064834,N,Y,42.4273581,-71.1861721
PAST SALE,August-14-2015,Condo/Co-op,10 Colonial Village Dr #1,Arlington,MA,02474,195000,1,1.0,Arlington,636,,1962,875,307,337,Sold,,,http://www.redfin.com/MA/Arlington/10-Colonial-Village-Dr-02474/unit-1/home/8422935,MLS PIN,71854654,N,Y,42.4261096,-71.1856717
PAST SALE,,Single Family Residential,242 Forest St,Arlington,MA,02474,585000,3,1.5,,1552,5325,1931,,377,,,,,http://www.redfin.com/MA/Arlington/242-Forest-St-02474/home/8440141,,,N,Y,42.4322996,-71.1762796
PAST SALE,,Single Family Residential,98 Ridge St,Arlington,MA,02474,603000,3,2.0,,2024,7930,1952,,298,,,,,http://www.redfin.com/MA/Arlington/98-Ridge-St-02474/home/8426517,,,N,Y,42.4258776,-71.157965
PAST SALE,,Condo/Co-op,12 Old Colony Ln,Arlington,MA,02476,85000,1,1.0,,605,,1965,,140,,,,,http://www.redfin.com/MA/Arlington/12-Old-Colony-Ln-02476/home/8420073,,,N,Y,42.4215651,-71.1713099
PAST SALE,,Single Family Residential,17 Beck Rd,Arlington,MA,02476,350000,2,1.0,,1342,4325,1914,,261,,,,,http://www.redfin.com/MA/Arlington/17-Beck-Rd-02476/home/8420377,,,N,Y,42.4250407,-71.1747446
PAST SALE,August-26-2016,Townhouse,478 Summer St #478,Arlington,MA,02474,439000,2,2.0,Arlington,1195,,1953,497,367,380,Sold,,,http://www.redfin.com/MA/Arlington/478-Summer-St-02474/unit-478/home/77495309,MLS PIN,72033901,N,Y,42.4278815,-71.1745754
PAST SALE,November-12-2015,Condo/Co-op,27 Pine St #1,Arlington,MA,02474,470000,3,2.0,Arlington,1542,6000,1926,785,305,224,Sold,,,http://www.redfin.com/MA/Arlington/27-Pine-St-02474/unit-1/home/101100021,MLS PIN,71909978,N,Y,42.424269,-71.16547
PAST SALE,June-10-2016,Townhouse,16 Nourse St #16,Arlington,MA,02474,769900,3,2.5,Arlington,2000,5009,2016,574,385,85,Sold,,,http://www.redfin.com/MA/Arlington/16-Nourse-St-02474/unit-16/home/104212467,MLS PIN,71974028,N,Y,42.4256606,-71.1843299
PAST SALE,July-31-2015,Condo/Co-op,33 Argyle Rd #33,Arlington,MA,02476,320000,2,1.0,Arlington,1051,,1960,889,304,80,Sold,,,http://www.redfin.com/MA/Arlington/35-Argyle-Rd-02476/unit-33/home/11928007,MLS PIN,71846314,N,Y,42.424062,-71.189708
PAST SALE,June-29-2016,Townhouse,16 Cliff St #16,Arlington,MA,02476,740000,4,3.0,Arlington Heights,2656,16018,1903,555,279,,Sold,,,http://www.redfin.com/MA/Arlington/16-Cliff-St-02476/unit-16/home/104495056,MLS PIN,71988306,N,Y,42.4201096,-71.1796336
PAST SALE,,Condo/Co-op,199 Everett St,Arlington,MA,02474,396000,2,1.0,,856,,1969,,463,,,,,http://www.redfin.com/MA/Arlington/199-Everett-St-02474/home/40431428,,,N,Y,42.41336,-71.137752
PAST SALE,,Condo/Co-op,21 Dartmouth St,Arlington,MA,02474,429900,2,1.0,,1141,,1923,,377,,,,,http://www.redfin.com/MA/Arlington/21-Dartmouth-St-02474/home/8414573,,,N,Y,42.4139544,-71.1410374
PAST SALE,November-14-2016,Single Family Residential,14 University Rd,Arlington,MA,02474,575000,3,1.0,East Arlington,1656,6480,1952,417,347,,Sold,,,http://www.redfin.com/MA/Arlington/14-University-Rd-02474/home/8413152,MLS PIN,72064188,N,Y,42.4125772,-71.1397033
PAST SALE,May-15-2015,Multi-Family (2-4 Unit),36-38 Fordham St,Arlington,MA,02474,735000,5,2.0,Arlington,2760,4500,1923,966,266,,Sold,,,http://www.redfin.com/MA/Arlington/36-38-Fordham-St-02474/home/23456446,MLS PIN,71814453,N,Y,42.4150373,-71.1409181
PAST SALE,June-12-2015,Condo/Co-op,122 Decatur St #12,Arlington,MA,02474,212500,1,1.0,Arlington,678,,1962,938,313,241,Sold,,,http://www.redfin.com/MA/Arlington/122-Decatur-St-02474/unit-12/home/8412843,MLS PIN,71823840,N,Y,42.4146492,-71.1378303
PAST SALE,December-4-2015,Multi-Family (2-4 Unit),24-26 Fordham St,Arlington,MA,02474,751000,5,2.0,East Arlington,2208,4500,1923,763,340,,Sold,,,http://www.redfin.com/MA/Arlington/24-26-Fordham-St-02474/home/23457552,MLS PIN,71902916,N,Y,42.4147996,-71.1404676
PAST SALE,April-29-2015,Multi-Family (2-4 Unit),11 Cornell St,Arlington,MA,02474,656000,4,2.0,Arlington,2208,4500,1924,982,297,,Sold,,,http://www.redfin.com/MA/Arlington/11-Cornell-St-02474/home/8414195,MLS PIN,71789875,N,Y,42.4133723,-71.1412105
PAST SALE,October-21-2016,Condo/Co-op,38 River St #2,Arlington,MA,02474,680000,3,2.0,Arlington,1800,3915,1917,441,378,180,Sold,,,http://www.redfin.com/MA/Arlington/38-River-St-02474/unit-2/home/109061560,MLS PIN,72071877,N,Y,42.4130346,-71.1406474
PAST SALE,January-6-2015,Single Family Residential,103 Waverley St,Arlington,MA,02476,585000,3,1.5,Arlington,1817,6000,1961,1095,322,,Sold,,,http://www.redfin.com/MA/Arlington/103-Waverley-St-02476/home/8456763,MLS PIN,71770897,N,Y,42.416281,-71.1855099
PAST SALE,,Condo/Co-op,72 Newport St,Arlington,MA,02476,596000,2,1.5,,1746,,1924,,341,,,,,http://www.redfin.com/MA/Arlington/72-Newport-St-02476/home/23456734,,,N,Y,42.414587,-71.16998
PAST SALE,November-9-2016,Single Family Residential,124 High Haith Rd,Arlington,MA,02476,764000,3,2.0,Arlington,1975,7014,1949,422,387,,Sold,,,http://www.redfin.com/MA/Arlington/124-High-Haith-Rd-02476/home/8451479,MLS PIN,72069391,N,Y,42.4100082,-71.1718954
PAST SALE,November-23-2016,Single Family Residential,259 Highland Ave,Arlington,MA,02476,450000,2,1.0,Arlington,720,4450,1948,408,625,,Sold,,,http://www.redfin.com/MA/Arlington/259-Highland-Ave-02476/home/11351857,MLS PIN,72075529,N,Y,42.4111114,-71.1735122
PAST SALE,July-31-2015,Single Family Residential,6 Gray Cir,Arlington,MA,02476,611000,3,1.5,Arlington,1855,4160,1929,889,329,,Sold,,,http://www.redfin.com/MA/Arlington/6-Gray-Cir-02476/home/8453679,MLS PIN,71845276,N,Y,42.419202,-71.1774673
PAST SALE,July-18-2016,Single Family Residential,67 George St,Arlington,MA,02474,1320000,4,3.5,Dallin,3255,6500,2016,536,406,,Sold,,,http://www.redfin.com/MA/Arlington/67-George-St-02476/home/8459321,MLS PIN,72004114,N,Y,42.4156835,-71.1870649
PAST SALE,July-27-2015,Condo/Co-op,108 Highland Ave #108,Arlington,MA,02476,520000,2,1.0,Arlington,1690,,1919,893,308,243,Sold,,,http://www.redfin.com/MA/Arlington/108-Highland-Ave-02476/unit-108/home/77503746,MLS PIN,71862210,N,Y,42.4143368,-71.1692466
PAST SALE,January-9-2016,Single Family Residential,293 Renfrew St,Arlington,MA,02476,842000,4,3.0,Heights,2180,5000,2015,727,386,,Sold,,,http://www.redfin.com/MA/Arlington/293-Renfrew-St-02476/home/8455261,MLS PIN,71931465,N,Y,42.4123904,-71.18328
PAST SALE,July-12-2016,Single Family Residential,11 Pine Ridge Rd,Arlington,MA,02476,726000,4,1.5,Arlington Heights,1808,9000,1923,542,402,,Sold,,,http://www.redfin.com/MA/Arlington/11-Pine-Ridge-Rd-02476/home/8449832,MLS PIN,72000342,N,Y,42.4168357,-71.1738488
PAST SALE,July-6-2016,Single Family Residential,88 School St,Arlington,MA,02476,975000,4,3.0,Arlington,2414,5967,1931,548,404,,Sold,,,http://www.redfin.com/MA/Arlington/88-School-St-02476/home/8452749,MLS PIN,71984416,N,Y,42.418422,-71.1733912
PAST SALE,June-30-2015,Single Family Residential,75 Florence Ave,Arlington,MA,02476,832500,3,3.0,Arlington Heights,3214,6151,2005,920,259,,Sold,,,http://www.redfin.com/MA/Arlington/75-Florence-Ave-02476/home/8459171,MLS PIN,71760494,N,Y,42.4194481,-71.1825585
PAST SALE,October-26-2015,Single Family Residential,99 Grandview Rd,Arlington,MA,02476,585000,3,1.0,Arlington Heights,1638,5057,1953,802,357,,Sold,,,http://www.redfin.com/MA/Arlington/99-Grandview-Rd-02476/home/8454360,MLS PIN,71906023,N,Y,42.4139972,-71.1782544
PAST SALE,July-27-2016,Single Family Residential,11 George St,Arlington,MA,02476,832000,4,3.5,Arlington Heights,1952,4258,1959,527,426,,Sold,,,http://www.redfin.com/MA/Arlington/11-George-St-02476/home/8464384,MLS PIN,72016590,N,Y,42.4175776,-71.1885998
PAST SALE,June-24-2016,Single Family Residential,50 Hathaway Cir,Arlington,MA,02476,1150000,5,3.5,Arlington Heights,3344,7680,2016,560,344,,Sold,,,http://www.redfin.com/MA/Arlington/50-Hathaway-Cir-02476/home/8466093,MLS PIN,71953798,N,Y,42.414306,-71.1876863
PAST SALE,September-29-2016,Single Family Residential,214 Wachusett Ave,Arlington,MA,02476,1100000,4,2.5,Arlington Heights,2400,8317,2016,463,458,,Sold,,,http://www.redfin.com/MA/Arlington/214-Wachusett-Ave-02476/home/8455529,MLS PIN,72052181,N,Y,42.4155328,-71.1832175
PAST SALE,December-1-2016,Townhouse,12 Field Rd #12,Arlington,MA,02476,840000,3,2.5,Arlington,2000,7000,2016,400,420,175,Sold,,,http://www.redfin.com/MA/Arlington/12-Field-Rd-02476/unit-12/home/109256534,MLS PIN,72078647,N,Y,42.415646,-71.1642596
PAST SALE,April-22-2016,Townhouse,106 Franklin St #106,Arlington,MA,02474,635000,3,2.5,Arlington,1570,,1920,623,404,,Sold,,,http://www.redfin.com/MA/Arlington/106-Franklin-St-02474/unit-106/home/103765439,MLS PIN,71958029,N,Y,42.4164658,-71.1455871
PAST SALE,,Multi-Family (2-4 Unit),56 Foster St,Arlington,MA,02474,350000,4,2.0,,2414,4950,1922,,145,,,,,http://www.redfin.com/MA/Arlington/56-Foster-St-02474/home/23457057,,,N,Y,42.4112706,-71.1453568
PAST SALE,August-5-2016,Multi-Family (2-4 Unit),42-44 Warren St,Arlington,MA,02474,855000,6,2.0,Arlington,3115,4504,1924,518,274,,Sold,,,http://www.redfin.com/MA/Arlington/42-44-Warren-St-02474/home/23457612,MLS PIN,72023554,N,Y,42.412067,-71.143592
PAST SALE,September-20-2016,Multi-Family (2-4 Unit),134 N Union St,Arlington,MA,02474,700000,6,2.0,East Arlington,1856,6000,1955,472,377,,Sold,,,http://www.redfin.com/MA/Arlington/134-N-Union-St-02474/home/8412562,MLS PIN,72027034,N,Y,42.4136066,-71.1361362
PAST SALE,March-31-2015,Single Family Residential,13 Chestnut St,Arlington,MA,02474,715000,2,2.0,Arlington,1652,8835,1956,1011,433,,Sold,,,http://www.redfin.com/MA/Arlington/13-Chestnut-St-02474/unit-13/home/108157207,MLS PIN,71784410,N,Y,42.416576,-71.149945
PAST SALE,December-17-2015,Condo/Co-op,44 Allen #44,Arlington,MA,02474,575000,3,1.5,East Arlington,1814,9975,1921,750,317,227,Sold,,,http://www.redfin.com/MA/Arlington/44-Allen-St-02474/unit-44/home/98280666,MLS PIN,71902158,N,Y,42.4121166,-71.1464639
PAST SALE,May-25-2016,Townhouse,33 Russell St #33,Arlington,MA,02474,752000,3,1.5,Arlington,2108,8417,1880,590,357,345,Sold,,,http://www.redfin.com/MA/Arlington/33-Russell-St-02474/unit-33/home/101652788,MLS PIN,71967207,N,Y,42.4180437,-71.1532289
PAST SALE,June-24-2016,Condo/Co-op,84 Marathon St #1,Arlington,MA,02474,650000,3,2.0,Arlington,1799,5000,1915,560,361,170,Sold,,,http://www.redfin.com/MA/Arlington/84-Marathon-St-02474/unit-1/home/105243495,MLS PIN,71992304,N,Y,42.4077672,-71.1374126
PAST SALE,July-9-2015,Condo/Co-op,82 Webster St #82,Arlington,MA,02474,465000,2,1.0,Arlington,988,,1923,911,471,198,Sold,,,http://www.redfin.com/MA/Arlington/82-Webster-St-02474/unit-82/home/113223663,MLS PIN,71814793,N,Y,42.4163375,-71.1443811
PAST SALE,,Condo/Co-op,17 Lewis Ave #2,Arlington,MA,02474,420000,2,1.0,,851,,1873,,494,,,,,http://www.redfin.com/MA/Arlington/17-Lewis-Ave-02474/unit-2/home/8416621,,,N,Y,42.4162992,-71.1469376
PAST SALE,,Condo/Co-op,20 Mystic Valley Pkwy,Arlington,MA,02474,575000,3,2.0,,1830,,1927,,314,,,,,http://www.redfin.com/MA/Arlington/20-Mystic-Valley-Pkwy-02474/home/14370717,,,N,Y,42.4144465,-71.1329298
PAST SALE,May-25-2016,Single Family Residential,8 Marrigan St,Arlington,MA,02474,447500,2,1.0,East Arlington,1185,2721,1947,590,378,,Sold,,,http://www.redfin.com/MA/Arlington/8-Marrigan-St-02474/home/8411117,MLS PIN,71980521,N,Y,42.4099382,-71.1340174
PAST SALE,,Condo/Co-op,119 Webster St #1,Arlington,MA,02474,390000,2,1.0,,966,,1923,,404,,,,,http://www.redfin.com/MA/Arlington/119-Webster-St-02474/unit-1/home/14370598,,,N,Y,42.4171419,-71.1434472
PAST SALE,September-20-2016,Multi-Family (2-4 Unit),78-80 Decatur St,Arlington,MA,02474,800000,4,4.0,East Arlington,3234,12944,1880,472,247,,Sold,,,http://www.redfin.com/MA/Arlington/80-Decatur-St-02474/home/140388397,MLS PIN,72027036,N,Y,42.4142617,-71.135844
PAST SALE,January-26-2016,Multi-Family (2-4 Unit),162-164 Mystic Valley Pkwy,Arlington,MA,02474,607000,4,2.0,East Arlington,2260,6822,1926,710,269,,Sold,,,http://www.redfin.com/MA/Arlington/162-164-Mystic-Valley-Pkwy-02474/home/23458593,MLS PIN,71870154,N,Y,42.4154501,-71.1400773
PAST SALE,,Condo/Co-op,37 Lakehill Ave,Arlington,MA,02474,471000,2,1.0,,977,,1910,,482,,,,,http://www.redfin.com/MA/Arlington/37-Lakehill-Ave-02474/home/11774837,,,N,Y,42.4056424,-71.1480105
PAST SALE,August-14-2015,Townhouse,12 Fordham St Unit 12A,Arlington,MA,02474,665000,3,3.5,Arlington,1946,,2006,875,342,195,Sold,,,http://www.redfin.com/MA/Arlington/12-Fordham-St-02474/unit-12A/home/21618072,MLS PIN,71854261,N,Y,42.4145709,-71.1400063
PAST SALE,December-8-2016,Condo/Co-op,18 Hamilton Rd #403,Arlington,MA,02476,400000,2,2.0,East Arlington,934,,1968,393,428,554,Sold,,,http://www.redfin.com/MA/Arlington/18-Hamilton-Rd-02474/unit-403/home/8406407,MLS PIN,72067483,N,Y,42.4063119,-71.1483566
PAST SALE,,Condo/Co-op,74 Franklin St,Arlington,MA,02474,643000,3,2.0,,2122,,1870,,303,,,,,http://www.redfin.com/MA/Arlington/74-Franklin-St-02474/home/8416656,,,N,Y,42.4158081,-71.146922
PAST SALE,October-29-2015,Townhouse,77 Warren St Unit A,Arlington,MA,02474,689000,3,2.5,Arlington,1808,,2008,799,381,,Sold,,,http://www.redfin.com/MA/Arlington/77-Warren-St-02474/unit-A/home/12544466,MLS PIN,71900746,N,Y,42.4133267,-71.1445396
PAST SALE,July-7-2016,Condo/Co-op,94 Rawson Rd #94,Arlington,MA,02474,410000,2,1.0,Arlington,951,,1927,547,431,131,Sold,,,http://www.redfin.com/MA/Arlington/94-Rawson-Rd-02474/unit-94/home/49671590,MLS PIN,72006810,N,Y,42.4146489,-71.1419809
PAST SALE,,Multi-Family (2-4 Unit),45 Lakehill Ave Unit 45A,Arlington,MA,02474,900000,5,3.0,,3602,10329,1910,,250,,,,,http://www.redfin.com/MA/Arlington/45-Lakehill-Ave-02474/unit-45A/home/8401913,,,N,Y,42.405764,-71.1480078
PAST SALE,,Condo/Co-op,32 Hamilton Rd Apt 207,Arlington,MA,02474,330000,1,1.0,,640,,1985,,516,,,,,http://www.redfin.com/MA/Arlington/32-Hamilton-Rd-02474/unit-207/home/8406645,,,N,Y,42.4078047,-71.1489356
PAST SALE,November-1-2016,Single Family Residential,22 Norcross St,Arlington,MA,02474,610000,5,3.0,Arlington,2873,9731,1976,430,212,,Sold,,,http://www.redfin.com/MA/Arlington/22-Norcross-St-02474/home/8411576,MLS PIN,72060861,N,Y,42.4100734,-71.1369294
PAST SALE,August-22-2016,Townhouse,70 Beacon St #1,Arlington,MA,02474,795000,4,3.5,Arlington,2992,,2016,501,266,150,Sold,,,http://www.redfin.com/MA/Arlington/70-Beacon-St-02474/unit-1/home/108296340,MLS PIN,72036264,N,Y,42.4161551,-71.1429209
PAST SALE,January-31-2017,Condo/Co-op,215 Massachusetts #45,Arlington,MA,02474,350000,1,1.0,Arlington,657,,1966,339,533,218,Sold,,,http://www.redfin.com/MA/Arlington/215-Massachusetts-Ave-02474/unit-45/home/112871003,MLS PIN,72106558,N,Y,42.4064013,-71.1423734
PAST SALE,April-21-2015,Townhouse,71 Medford St #71,Arlington,MA,02474,743000,3,2.5,East Arlington,2781,,2008,990,267,,Sold,,,http://www.redfin.com/MA/Arlington/71-Medford-St-02474/unit-71/home/113228710,MLS PIN,71795021,N,Y,42.4165113,-71.1476739
PAST SALE,January-9-2015,Single Family Residential,52 Eliot Rd,Arlington,MA,02474,605000,2,1.0,Kelwyn Manor,1179,7276,1938,1092,513,75,Sold,,,http://www.redfin.com/MA/Arlington/52-Eliot-Rd-02474/home/8404120,MLS PIN,71765434,N,Y,42.4044806,-71.1516375
PAST SALE,June-3-2015,Townhouse,40 Park St #40,Arlington,MA,02474,796000,3,2.5,Arlington,2171,,2015,947,367,,Sold,,,http://www.redfin.com/MA/Arlington/40-Park-St-02474/unit-40/home/77300003,MLS PIN,71821288,N,Y,42.414675,-71.143184
PAST SALE,July-22-2016,Single Family Residential,23 Tufts St,Arlington,MA,02474,750000,3,1.5,Arlington,1698,5000,1937,532,442,,Sold,,,http://www.redfin.com/MA/Arlington/23-Tufts-St-02474/home/11351474,MLS PIN,72019672,N,Y,42.4095213,-71.1454743
PAST SALE,December-28-2016,Townhouse,20 Freeman St #1,Arlington,MA,02474,700000,4,3.0,Arlington,2466,5000,1910,373,284,,Sold,,,http://www.redfin.com/MA/Arlington/20-Freeman-St-02474/unit-1/home/112780001,MLS PIN,72103783,N,Y,42.4057834,-71.1442289
PAST SALE,August-21-2015,Condo/Co-op,7 Dartmouth #1,Arlington,MA,02474,361000,2,1.0,Arlington,942,,1921,868,383,175,Sold,,,http://www.redfin.com/MA/Arlington/7-Dartmouth-St-02474/unit-1/home/86047481,MLS PIN,71859248,N,Y,42.413784,-71.140518
PAST SALE,August-24-2015,Townhouse,71 DOROTHY Rd #71,Arlington,MA,02474,760000,3,2.5,Arlington,2003,,2015,865,379,,Sold,,,http://www.redfin.com/MA/Arlington/71-Dorothy-Rd-02474/unit-71/home/88368281,MLS PIN,71870904,N,Y,42.4019863,-71.1501908
PAST SALE,February-5-2015,Townhouse,25 Mott St #2,Arlington,MA,02474,789000,3,2.5,East Arlington,2300,,2014,1065,343,,Sold,,,http://www.redfin.com/MA/Arlington/25-Mott-St-02474/unit-2/home/113227143,MLS PIN,71774991,N,Y,42.4024041,-71.1503012
PAST SALE,,Condo/Co-op,191 Mystic St,Arlington,MA,02474,750000,4,2.5,,1877,,1920,,400,,,,,http://www.redfin.com/MA/Arlington/191-Mystic-St-02474/home/8423873,,,N,Y,42.4222644,-71.1536713
PAST SALE,June-27-2016,Condo/Co-op,15 Mystic Lake Dr #1,Arlington,MA,02474,551000,2,1.0,Arlington,1271,8963,1915,557,434,80,Sold,,,http://www.redfin.com/MA/Arlington/15-Mystic-Lake-Dr-02474/unit-1/home/8468558,MLS PIN,71984159,N,Y,42.4217249,-71.1447372
PAST SALE,August-5-2016,Condo/Co-op,38 Lafayette St #38,Arlington,MA,02474,635000,3,2.0,Arlington,1649,,1926,518,385,120,Sold,,,http://www.redfin.com/MA/Arlington/38-Lafayette-St-02474/unit-38/home/105543453,MLS PIN,72007981,N,Y,42.4007395,-71.1386548
PAST SALE,,Townhouse,71 Medford St,Arlington,MA,02474,743000,3,2.5,,2781,,2008,,267,,,,,http://www.redfin.com/MA/Arlington/71-Medford-St-02474/home/39603020,,,N,Y,42.416511,-71.147674
PAST SALE,July-30-2015,Single Family Residential,5 Cheviot Rd,Arlington,MA,02474,780000,3,1.5,Arlington,2095,6173,1926,890,372,,Sold,,,http://www.redfin.com/MA/Arlington/5-Cheviot-Rd-02474/home/11774642,MLS PIN,71855424,N,Y,42.4298475,-71.1518409
PAST SALE,,Condo/Co-op,18 Lakehill Ave,Arlington,MA,02474,516000,2,2.0,,1125,,1923,,459,,,,,http://www.redfin.com/MA/Arlington/18-Lakehill-Ave-02474/home/39603013,,,N,Y,42.4048682,-71.1480543
PAST SALE,April-25-2015,Condo/Co-op,45 Egerton Rd #45,Arlington,MA,02474,705000,3,2.0,East Arlington,1800,4927,1923,986,392,150,Sold,,,http://www.redfin.com/MA/Arlington/45-Egerton-Rd-02474/unit-45/home/69741686,MLS PIN,71807750,N,Y,42.4040362,-71.1431631
PAST SALE,May-1-2015,Condo/Co-op,63 Broadway #1,Arlington,MA,02474,410000,2,1.0,East Arlington,1016,,1910,980,404,180,Sold,,,http://www.redfin.com/MA/Arlington/63-Broadway-02474/unit-1/home/8466972,MLS PIN,71803033,N,Y,42.4089693,-71.1374954
PAST SALE,,Condo/Co-op,16 Mary St,Arlington,MA,02474,595000,3,2.0,,1811,,1926,,329,,,,,http://www.redfin.com/MA/Arlington/16-Mary-St-02474/home/12098961,,,N,Y,42.4034839,-71.1472399
PAST SALE,December-23-2015,Single Family Residential,81 Sunnyside Ave,Arlington,MA,02474,326000,2,1.0,East Arlington,792,2996,1948,744,412,,Sold,,,http://www.redfin.com/MA/Arlington/81-Sunnyside-Ave-02474/home/8411200,MLS PIN,71931177,N,Y,42.4104189,-71.1329697
PAST SALE,December-22-2015,Condo/Co-op,29 Egerton Rd Unit 2nd flr,Arlington,MA,02474,535000,4,1.5,Arlington,1804,,1914,745,297,200,Sold,,,http://www.redfin.com/MA/Arlington/29-Egerton-Rd-02474/unit-2ND-FLR/home/88364269,MLS PIN,71870811,N,Y,42.4042553,-71.1424974
PAST SALE,November-6-2015,Townhouse,7 Teel St #7,Arlington,MA,02474,755000,3,2.5,East Arlington,1905,,2015,791,396,71,Sold,,,http://www.redfin.com/MA/Arlington/7-Teel-St-02474/unit-7/home/113225329,MLS PIN,71895493,N,Y,42.4029579,-71.1380065
PAST SALE,July-31-2015,Multi-Family (2-4 Unit),10 Field Rd,Arlington,MA,02476,775000,4,2.0,Arlington,2869,7000,1925,889,270,,Sold,,,http://www.redfin.com/MA/Arlington/10-Field-Rd-02476/home/8443665,MLS PIN,71855464,N,Y,42.4157182,-71.164182
PAST SALE,June-30-2016,Townhouse,900 Mass Ave #9999,Arlington,MA,02474,785000,3,3.0,Arlington,2005,3600,1924,554,392,159,Sold,,,http://www.redfin.com/MA/Arlington/900-Massachusetts-Ave-02476/unit-9999/home/105438634,MLS PIN,71997381,N,Y,42.417384,-71.1644274
PAST SALE,August-10-2015,Single Family Residential,127 Alpine Ter,Arlington,MA,02474,659000,3,1.5,Arlington,1494,4578,1937,879,441,,Sold,,,http://www.redfin.com/MA/Arlington/127-Alpine-Ter-02474/home/8439045,MLS PIN,71846562,N,Y,42.4303837,-71.1777295
PAST SALE,January-8-2016,Single Family Residential,87 Alpine St,Arlington,MA,02474,893000,4,3.5,Arlington,2555,5008,2015,728,350,,Sold,,,http://www.redfin.com/MA/Arlington/87-Alpine-St-02474/home/8429422,MLS PIN,71922737,N,Y,42.4290792,-71.1793166
PAST SALE,June-15-2016,Multi-Family (2-4 Unit),46-48 Park Avenue Ext,Arlington,MA,02475,760000,6,3.0,Arlington,2406,6000,1924,569,316,,Sold,,,http://www.redfin.com/MA/Arlington/46-48-Park-Avenue-Ext-02474/home/23457719,MLS PIN,71980714,N,Y,42.427769,-71.180492
PAST SALE,July-21-2015,Single Family Residential,54 Alpine St,Arlington,MA,02474,769000,3,3.0,Arlington,1700,5691,1915,899,452,,Sold,,,http://www.redfin.com/MA/Arlington/54-Alpine-St-02474/home/8429287,MLS PIN,71856042,N,Y,42.4284804,-71.1806786
PAST SALE,February-28-2017,Single Family Residential,652 Summer St,Arlington,MA,02474,670000,3,1.5,Arlington,2130,16243,1950,311,315,,Sold,,,http://www.redfin.com/MA/Arlington/652-Summer-St-02474/home/8438209,MLS PIN,72086263,N,Y,42.4311257,-71.1813249
PAST SALE,,Townhouse,45 Orient Ave,Arlington,MA,02474,370000,2,1.0,,847,,1965,,437,,,,,http://www.redfin.com/MA/Arlington/45-Orient-Ave-02474/home/8468707,,,N,Y,42.4297904,-71.1815758
PAST SALE,March-26-2015,Townhouse,45 Orient Ave #45,Arlington,MA,02474,370000,2,1.0,Arlington,1243,,1965,1016,298,,Sold,,,http://www.redfin.com/MA/Arlington/45-Orient-Ave-02474/unit-45/home/77520332,MLS PIN,71788934,N,Y,42.4297904,-71.1815758
PAST SALE,March-31-2016,Townhouse,9 Crescent Hill Ave #9,Arlington,MA,02474,759900,3,2.5,Arlington,1693,5500,2016,645,449,90,Sold,,,http://www.redfin.com/MA/Arlington/9-Crescent-Hill-Ave-02474/unit-9/home/103926794,MLS PIN,71960638,N,Y,42.4288949,-71.1834843
PAST SALE,April-28-2017,Single Family Residential,74 Alpine St,Arlington,MA,02474,620000,3,1.5,Arlington Heights,1560,5978,1915,252,397,,Sold,,,http://www.redfin.com/MA/Arlington/74-Alpine-St-02474/home/8429311,MLS PIN,72128894,N,Y,42.4289694,-71.1800025
PAST SALE,,Multi-Family (2-4 Unit),57-59 Webster St,Arlington,MA,02474,550000,6,3.5,,3767,4770,1923,,146,,,,,http://www.redfin.com/MA/Arlington/57-59-Webster-St-02474/home/23457061,,,N,Y,42.4153347,-71.1451284
PAST SALE,,Multi-Family (2-4 Unit),72 Beacon St,Arlington,MA,02474,810000,5,7.0,,5239,5209,2016,,155,,,,,http://www.redfin.com/MA/Arlington/72-Beacon-St-02474/home/23457662,,,N,Y,42.4161404,-71.1429087
PAST SALE,,Condo/Co-op,110 Franklin St,Arlington,MA,02474,515000,4,2.0,,3302,,1910,,156,,,,,http://www.redfin.com/MA/Arlington/110-Franklin-St-02474/home/21623731,,,N,Y,42.416632,-71.145578
PAST SALE,June-29-2016,Single Family Residential,77 Beacon St,Arlington,MA,02474,596000,2,1.5,Arlington,1404,5375,1920,555,425,,Sold,,,http://www.redfin.com/MA/Arlington/77-Beacon-St-02474/home/8416024,MLS PIN,72004949,N,Y,42.4161578,-71.1424219
PAST SALE,August-4-2016,Condo/Co-op,136 Webster St #136,Arlington,MA,02474,507500,2,1.0,Arlington,1468,,1924,519,346,,Sold,,,http://www.redfin.com/MA/Arlington/136-Webster-St-02474/unit-136/home/105543917,MLS PIN,72008112,N,Y,42.4180545,-71.143218
PAST SALE,August-19-2016,Townhouse,72 Beacon St #1,Arlington,MA,02474,810000,4,3.5,Arlington,2992,,2016,504,271,150,Sold,,,http://www.redfin.com/MA/Arlington/72-Beacon-St-02474/unit-1/home/108139258,MLS PIN,72028092,N,Y,42.4161404,-71.1429087
PAST SALE,,Multi-Family (2-4 Unit),27 Newton Rd,Arlington,MA,02474,316875,4,2.0,,2428,4540,1930,,131,,,,,http://www.redfin.com/MA/Arlington/27-Newton-Rd-02474/home/8416886,,,N,Y,42.418563,-71.1451986
PAST SALE,January-31-2017,Condo/Co-op,105 Webster St #105,Arlington,MA,02474,590000,2,2.0,East Arlington,1562,,1924,339,378,161,Sold,,,http://www.redfin.com/MA/Arlington/105-Webster-St-02474/unit-105/home/77499286,MLS PIN,72099157,N,Y,42.4168365,-71.1438024
PAST SALE,October-23-2015,Condo/Co-op,142 palmer St #2,Arlington,MA,02474,529000,2,2.0,Arlington,1190,,1920,805,445,165,Sold,,,http://www.redfin.com/MA/Arlington/142-Palmer-St-02474/unit-2/home/88644905,MLS PIN,71874816,N,Y,42.4162011,-71.1437875
PAST SALE,,Condo/Co-op,40 Webster St,Arlington,MA,02474,480000,2,1.0,,945,,1923,,508,,,,,http://www.redfin.com/MA/Arlington/40-Webster-St-02474/home/21618071,,,N,Y,42.4150191,-71.1457758
PAST SALE,May-20-2016,Condo/Co-op,56 Beacon St #56,Arlington,MA,02474,485000,3,1.0,Arlington,1177,,1925,595,412,150,Sold,,,http://www.redfin.com/MA/Arlington/56-Beacon-St-02474/unit-56/home/104302471,MLS PIN,71980241,N,Y,42.4156251,-71.1434829
PAST SALE,January-30-2017,Condo/Co-op,40 Webster St #40,Arlington,MA,02474,480000,2,1.0,Arlington,945,,1923,340,508,100,Sold,,,http://www.redfin.com/MA/Arlington/40-Webster-St-02474/unit-40/home/110332268,MLS PIN,72097458,N,Y,42.4150191,-71.1457758
PAST SALE,November-29-2016,Condo/Co-op,152 Webster St #1,Arlington,MA,02474,590000,3,2.0,Arlington,1656,4989,1920,402,356,160,Sold,,,http://www.redfin.com/MA/Arlington/152-Webster-St-02474/unit-1/home/77525846,MLS PIN,72071740,N,Y,42.4185442,-71.1429069
PAST SALE,,Multi-Family (2-4 Unit),145 Franklin St,Arlington,MA,02474,1000000,6,3.5,,3187,9845,1926,,314,,,,,http://www.redfin.com/MA/Arlington/145-Franklin-St-02474/home/23459199,,,N,Y,42.417674,-71.1444379
PAST SALE,,Condo/Co-op,123 Palmer St,Arlington,MA,02474,502000,2,1.0,,1096,,1925,,458,,,,,http://www.redfin.com/MA/Arlington/123-Palmer-St-02474/home/8468998,,,N,Y,42.415632,-71.143795
PAST SALE,,Multi-Family (2-4 Unit),136 Webster St,Arlington,MA,02474,625000,7,3.0,,3068,5732,1924,,204,,,,,http://www.redfin.com/MA/Arlington/136-Webster-St-02474/home/8415658,,,N,Y,42.418057,-71.143242
PAST SALE,November-8-2016,Single Family Residential,89 Beacon St,Arlington,MA,02474,720000,4,2.5,Arlington,2050,7500,1920,423,351,,Sold,,,http://www.redfin.com/MA/Arlington/89-Beacon-St-02474/home/8416041,MLS PIN,72071461,N,Y,42.4165541,-71.1420353
PAST SALE,May-31-2016,Condo/Co-op,135 Medford St #1,Arlington,MA,02474,590000,2,2.0,Arlington,1600,5108,1935,584,369,175,Sold,,,http://www.redfin.com/MA/Arlington/135-Medford-St-02474/unit-1/home/105286624,MLS PIN,71992870,N,Y,42.4187044,-71.1455546
PAST SALE,July-12-2016,Condo/Co-op,138 Webster St #138,Arlington,MA,02474,625000,4,2.0,Arlington,1887,,1924,542,331,,Sold,,,http://www.redfin.com/MA/Arlington/138-Webster-St-02474/unit-138/home/105544018,MLS PIN,72008146,N,Y,42.4181266,-71.1431492
PAST SALE,February-28-2017,Condo/Co-op,112 Palmer St #1,Arlington,MA,02474,680900,3,1.5,Arlington,1185,,1925,311,575,200,Sold,,,http://www.redfin.com/MA/Arlington/112-Palmer-St-02474/unit-1/home/113011931,MLS PIN,72115346,N,Y,42.4153924,-71.1446183
PAST SALE,February-19-2016,Townhouse,66 Park St #66,Arlington,MA,02474,785000,3,2.5,East Arlington,1640,7500,2015,686,479,145,Sold,,,http://www.redfin.com/MA/Arlington/66-Park-St-02474/unit-66/home/113216545,MLS PIN,71910192,N,Y,42.4157246,-71.142019
PAST SALE,January-8-2016,Townhouse,43 Beacon St #43,Arlington,MA,02474,795000,3,2.5,Arlington,2214,,2015,728,359,150,Sold,,,http://www.redfin.com/MA/Arlington/43-Beacon-St-02474/unit-43/home/113229382,MLS PIN,71928345,N,Y,42.4151056,-71.1434535
PAST SALE,April-28-2017,Condo/Co-op,144 Palmer St #144,Arlington,MA,02474,540000,2,1.0,Arlington,921,,1925,252,586,141,Sold,,,http://www.redfin.com/MA/Arlington/144-Palmer-St-02474/unit-144/home/113432846,MLS PIN,72131538,N,Y,42.4162672,-71.143731
PAST SALE,June-8-2016,Single Family Residential,15 Carl Rd,Arlington,MA,02474,588000,4,2.0,Arlington,1524,5745,1930,576,386,,Sold,,,http://www.redfin.com/MA/Arlington/15-Carl-Rd-02474/home/8439724,MLS PIN,71996228,N,Y,42.430006,-71.171411
PAST SALE,June-27-2016,Single Family Residential,140 Overlook Rd,Arlington,MA,02474,941000,4,3.5,Arlington,2950,5004,2001,557,319,,Sold,,,http://www.redfin.com/MA/Arlington/140-Overlook-Rd-02474/home/11536232,MLS PIN,71988304,N,Y,42.4299028,-71.1696618
PAST SALE,,Single Family Residential,120 Ronald Rd,Arlington,MA,02474,654500,3,1.5,,2175,5378,1920,,301,,,,,http://www.redfin.com/MA/Arlington/120-Ronald-Rd-02474/home/8433595,,,N,Y,42.4292427,-71.169035
PAST SALE,February-27-2015,Single Family Residential,255 Washington St,Arlington,MA,02474,900000,4,3.5,Arlington,2500,6272,1930,1043,360,,Sold,,,http://www.redfin.com/MA/Arlington/255-Washington-St-02474/home/8439747,MLS PIN,71784358,N,Y,42.42966,-71.1702902
PAST SALE,August-18-2016,Single Family Residential,7 Carl Rd,Arlington,MA,02474,575000,3,1.5,Arlington,1204,4405,1930,505,478,,Sold,,,http://www.redfin.com/MA/Arlington/7-Carl-Rd-02474/home/8439716,MLS PIN,72029272,N,Y,42.429805,-71.171161
PAST SALE,,Single Family Residential,25 Peter Tufts Rd,Arlington,MA,02474,550000,2,1.5,,1215,6913,1915,,453,,,,,http://www.redfin.com/MA/Arlington/25-Peter-Tufts-Rd-02474/home/8434223,,,N,Y,42.428026,-71.1725064
PAST SALE,May-10-2016,Single Family Residential,35 Aerial St,Arlington,MA,02474,917500,4,3.0,Stratton School,2750,6246,2016,605,334,,Sold,,,http://www.redfin.com/MA/Arlington/35-Aerial-St-02474/home/8439793,MLS PIN,71960545,N,Y,42.429303,-71.170606
PAST SALE,March-15-2016,Single Family Residential,50 Washington St,Arlington,MA,02474,590000,3,1.5,Arlington,1325,6000,1948,661,445,,Sold,,,http://www.redfin.com/MA/Arlington/50-Washington-St-02474/home/8428094,MLS PIN,71953124,N,Y,42.4231921,-71.1692916
PAST SALE,April-25-2016,Single Family Residential,295 Lake St,Arlington,MA,02474,650000,3,2.5,Alrmont Village,1689,5488,1931,620,385,,Sold,,,http://www.redfin.com/MA/Arlington/295-Lake-St-02474/home/8407002,MLS PIN,71956272,N,Y,42.4038222,-71.1600242
PAST SALE,,Condo/Co-op,15 Rockaway Ln,Arlington,MA,02474,501000,2,1.5,,1255,,1963,,399,,,,,http://www.redfin.com/MA/Arlington/15-Rockaway-Ln-02474/home/12098954,,,N,Y,42.4274692,-71.1753047
PAST SALE,January-13-2017,Single Family Residential,42 Lennon Rd,Arlington,MA,02474,625000,3,2.0,Arlington,2175,4457,1965,357,287,,Sold,,,http://www.redfin.com/MA/Arlington/42-Lennon-Rd-02474/home/8428971,MLS PIN,72087901,N,Y,42.4279275,-71.1766642
PAST SALE,July-9-2015,Single Family Residential,133 Sunset Rd,Arlington,MA,02474,616000,3,2.5,Arlington,1797,5100,1930,911,343,,Sold,,,http://www.redfin.com/MA/Arlington/133-Sunset-Rd-02474/home/8434170,MLS PIN,71822620,N,Y,42.4293323,-71.175229
PAST SALE,January-25-2017,Single Family Residential,6 Appleton Pl,Arlington,MA,02476,601061,3,1.5,Arlington Heights,1488,4219,1924,345,404,,Sold,,,http://www.redfin.com/MA/Arlington/6-Appleton-Pl-02476/home/8458199,MLS PIN,72097406,N,Y,42.4230891,-71.175727
PAST SALE,November-1-2016,Single Family Residential,13 Aerial St,Arlington,MA,02474,758000,3,2.5,Arlington,1834,8000,1910,430,413,,Sold,,,http://www.redfin.com/MA/Arlington/13-Aerial-St-02474/home/11774672,MLS PIN,72068548,N,Y,42.4295266,-71.1738776
PAST SALE,April-25-2016,Single Family Residential,24 Clark St,Arlington,MA,02476,530000,3,2.0,Arlington Heights,1256,5263,1924,620,422,,Sold,,,http://www.redfin.com/MA/Arlington/24-Clark-St-02476/home/8420923,MLS PIN,71945047,N,Y,42.424953,-71.176695
PAST SALE,August-12-2016,Single Family Residential,11 Blossom St,Arlington,MA,02474,799999,3,3.5,Arlington,1916,4020,1920,511,418,,Sold,,,http://www.redfin.com/MA/Arlington/11-Blossom-St-02474/home/8428675,MLS PIN,72024313,N,Y,42.4269509,-71.1761728
PAST SALE,,Condo/Co-op,28 Rockaway Ln,Arlington,MA,02474,505000,2,1.5,,1255,,1963,,402,,,,,http://www.redfin.com/MA/Arlington/28-Rockaway-Ln-02474/home/12098893,,,N,Y,42.4271166,-71.1755282
PAST SALE,May-27-2015,Condo/Co-op,30 Peirce St #0,Arlington,MA,02476,410000,2,1.0,Arlington,998,,1908,954,411,113,Sold,,,http://www.redfin.com/MA/Arlington/30-Peirce-St-02476/unit-0/home/76493486,MLS PIN,71817646,N,Y,42.4243335,-71.1766425
PAST SALE,August-18-2015,Townhouse,24 Rockaway Ln #24,Arlington,MA,02474,400000,2,1.0,Arlington,1255,,1963,871,319,341,Sold,,,http://www.redfin.com/MA/Arlington/24-Rockaway-Ln-02474/unit-24/home/77509608,MLS PIN,71870121,N,Y,42.4271162,-71.1755287
PAST SALE,June-3-2015,Multi-Family (2-4 Unit),10-12 Burton St,Arlington,MA,02476,750000,4,2.0,Arlington,2392,5270,1926,947,314,,Sold,,,http://www.redfin.com/MA/Arlington/12-Burton-St-02476/home/23457299,MLS PIN,71812635,N,Y,42.4228202,-71.1748563
PAST SALE,,Townhouse,16 Frazer Rd,Arlington,MA,02476,310000,2,1.0,,1150,,1953,,270,,,,,http://www.redfin.com/MA/Arlington/16-Frazer-Rd-02476/home/8421112,,,N,Y,42.4254821,-71.1765333
PAST SALE,August-26-2015,Single Family Residential,93 Sunset Rd,Arlington,MA,02474,475000,3,1.0,Arlington,1193,4578,1931,863,398,,Sold,,,http://www.redfin.com/MA/Arlington/93-Sunset-Rd-02474/home/8428755,MLS PIN,71859361,N,Y,42.428638,-71.17637
PAST SALE,,Condo/Co-op,472 Summer St,Arlington,MA,02474,377000,2,1.0,,1195,,1953,,315,,,,,http://www.redfin.com/MA/Arlington/472-Summer-St-02474/home/12099168,,,N,Y,42.4276213,-71.1744963
PAST SALE,,Townhouse,474 Summer St,Arlington,MA,02474,370000,2,1.0,,1195,,1953,,310,,,,,http://www.redfin.com/MA/Arlington/474-Summer-St-02474/home/12099169,,,N,Y,42.4277189,-71.1745214
PAST SALE,December-21-2016,Single Family Residential,10 Lennon Rd,Arlington,MA,02474,630000,3,1.5,Arlington,1200,4975,1929,380,525,,Sold,,,http://www.redfin.com/MA/Arlington/10-Lennon-Rd-02474/home/11536081,MLS PIN,72088904,N,Y,42.4267067,-71.1774603
PAST SALE,August-26-2016,Townhouse,472 Summer St #472,Arlington,MA,02474,377000,2,1.0,Arlington,1195,,1953,497,315,345,Sold,,,http://www.redfin.com/MA/Arlington/472-Summer-St-02474/unit-472/home/106065646,MLS PIN,72015664,N,Y,42.4276213,-71.1744963
PAST SALE,July-20-2015,Single Family Residential,48 Crosby St,Arlington,MA,02474,580000,3,1.5,Morningside,1232,6000,1952,900,471,,Sold,,,http://www.redfin.com/MA/Arlington/48-Crosby-St-02474/home/8427420,MLS PIN,71837083,N,Y,42.4255642,-71.1555592
PAST SALE,June-23-2015,Single Family Residential,15 Glen Ave,Arlington,MA,02474,880000,4,1.5,Arlington,2358,6157,1900,927,373,,Sold,,,http://www.redfin.com/MA/Arlington/15-Glen-Ave-02474/home/8423656,MLS PIN,71807702,N,Y,42.4218641,-71.1530916
PAST SALE,November-24-2015,Condo/Co-op,215 Massachusetts #34,Arlington,MA,02474,296000,1,1.0,East Arlington,592,,1966,773,500,197,Sold,,,http://www.redfin.com/MA/Arlington/215-Massachusetts-02474/unit-34/home/100383450,MLS PIN,71906559,N,Y,42.4232158,-71.1537637
PAST SALE,January-22-2015,Condo/Co-op,215 Massachusetts #24,Arlington,MA,02474,299000,1,1.0,Arlington,708,,1966,1079,422,236,Sold,,,http://www.redfin.com/MA/Arlington/215-Massachusetts-02474/unit-24/home/113240117,MLS PIN,71752973,N,Y,42.4232158,-71.1537637
PAST SALE,May-6-2015,Condo/Co-op,215 Massachusetts #5,Arlington,MA,02474,282000,1,1.0,East Arlington,647,,1966,975,436,215,Sold,,,http://www.redfin.com/MA/Arlington/215-Massachusetts-02474/unit-5/home/137978419,MLS PIN,71800447,N,Y,42.4232158,-71.1537637
PAST SALE,April-27-2015,Condo/Co-op,215 Massachusetts #26,Arlington,MA,02474,262000,1,1.0,East Arlington,592,,1966,984,443,197,Sold,,,http://www.redfin.com/MA/Arlington/215-Massachusetts-02474/unit-26/home/69078706,MLS PIN,71803598,N,Y,42.4232158,-71.1537637
PAST SALE,June-13-2016,Single Family Residential,22 Victoria Rd,Arlington,MA,02474,1040000,4,3.0,Arlington,2885,7045,1930,571,360,,Sold,,,http://www.redfin.com/MA/Arlington/22-Victoria-Rd-02474/home/8423966,MLS PIN,71971823,N,Y,42.4207369,-71.1545078
PAST SALE,,Vacant Land,Blueberry Hill Ln,Arlington,MA,02474,900000,,,,,37541,,,,,,,,http://www.redfin.com/MA/Arlington/Blueberry-Hill-Ln-02474/home/85672336,,,N,Y,42.4252608,-71.159093
